"borough","bin__","house__","street_name","job__","job_doc___","job_type","self_cert","block","lot","community_board","zip_code","bldg_type","residential","special_district_1","special_district_2","work_type","permit_status","filing_status","permit_type","permit_sequence__","permit_subtype","oil_gas","site_fill","filing_date","issuance_date","expiration_date","job_start_date","permittee_s_first_name","permittee_s_last_name","permittee_s_business_name","permittee_s_phone__","permittee_s_license_type","permittee_s_license__","act_as_superintendent","permittee_s_other_title","hic_license","site_safety_mgr_s_first_name","site_safety_mgr_s_last_name","site_safety_mgr_business_name","superintendent_first___last_name","superintendent_business_name","owner_s_business_type","non_profit","owner_s_business_name","owner_s_first_name","owner_s_last_name","owner_s_house__","owner_s_house_street_name","city","state","owner_s_zip_code","owner_s_phone__","dobrundate","permit_si_no","gis_latitude","gis_longitude","gis_council_district","gis_census_tract","gis_nta_name"
"MANHATTAN","1088749","1","MADISON AVE","141008987","01","A3","Y","00853","00002","105","10010","2",,,,"EQ","ISSUED","INITIAL","EQ","01","OT",,,"05/10/2022","05/10/2022","05/10/2023","05/10/2022","FRANKIE","COLLETTA","FORCE INSTALLATIONS, LLC","2122441050","GC","0621634",,,,,,,,,"CORPORATION","N","SL GREEN REALTY CORP.","JOHN","KRUSH",,,,,,"2125942700","05/11/2022 00:00:00","3905851","40.740909","-73.987947","2","56","Hudson Yards-Chelsea-Flatiron-Union Square"
"STATEN ISLAND","5076937","87","BOYLAN STREET","540218539","01","A2","Y","05687","00066","503","10312","1","YES","SRD",,"OT","ISSUED","INITIAL","EW","01","OT",,"NOT APPLICABLE","05/10/2022","05/10/2022","10/01/2022","05/12/2022","PAUL","JOYCE","SUNRUN INSTALLATION SVC","8055407643","GC","0613329",,,,,,,,,"INDIVIDUAL","N","N/A","STEVEN","MONTANA",,,,,,"9174201655","05/11/2022 00:00:00","3905852","40.563654","-74.179584","51","17008","Arden Heights"
"STATEN ISLAND","5001506","217","LAFAYETTE AVENUE","540218575","01","A2","Y","00064","00022","501","10301","1","YES","HS",,"OT","ISSUED","INITIAL","EW","01","OT",,"NOT APPLICABLE","05/10/2022","05/10/2022","10/01/2022","05/15/2022","PAUL","JOYCE","SUNRUN INSTALLATION SVC","8055407643","GC","0613329",,,,,,,,,"INDIVIDUAL","N","N/A","SANTO","CEBALLOS",,,,,,"7188125847","05/11/2022 00:00:00","3905853","40.639633","-74.094169","49","81","West New Brighton-New Brighton-St. George"
"STATEN ISLAND","5067021","170","OAKDALE STREET","540218600","01","A2","Y","05260","00001","503","10308","1","YES","SRD",,"OT","ISSUED","INITIAL","EW","01","OT",,"NOT APPLICABLE","05/10/2022","05/10/2022","10/01/2022","05/15/2022","PAUL","JOYCE","SUNRUN INSTALLATION SVC","8055407643","GC","0613329",,,,,,,,,"INDIVIDUAL","N","N/A","JOANNA","GIANGRANDE",,,,,,"3478575846","05/11/2022 00:00:00","3905854","40.544597","-74.157153","51","15601","Great Kills"
"STATEN ISLAND","5058036","273","10 STREET","540218628","01","A2","Y","04242","00045","502","10306","1","YES",,,"OT","ISSUED","INITIAL","EW","01","OT",,"NOT APPLICABLE","05/10/2022","05/10/2022","11/15/2022","05/24/2022","ALEXANDER","YACKERY","VENTURE HOME SOLAR LLC","7183982259","GC","0615255",,,,,,,,,"INDIVIDUAL","N","N/A","ARKADLY","FRIDMAN",,,,,,"7186195891","05/11/2022 00:00:00","3905855","40.566798","-74.119726","50","134","New Dorp-Midland Beach"
"BROOKLYN","3006577","101","DOUGLASS STREET","321004603","01","NB","N","00409","00048","306","11231","2","YES",,,"PL","ISSUED","RENEWAL","PL","04",,,"ON-SITE","05/10/2022","05/10/2022","05/10/2023","06/19/2017","SIMON","HUNG","QMB PLUMBING & HEATING IN","7187281883","MP","0001892",,,,,,,,,"PARTNERSHIP","N","BUILD 360 LLC","JOSH","EGENDORF",,,,,,"7187079550","05/11/2022 00:00:00","3905856","40.683034","-73.991282","33","69","DUMBO-Vinegar Hill-Downtown Brooklyn-Boerum Hill"
"BROOKLYN","3171950","1272","EAST 10TH ST","321980335","01","A1","N","06545","00036","312","11230","1","YES","OP",,,"ISSUED","RENEWAL","AL","04",,,"USE UNDER 300 CU.YD","05/10/2022","05/10/2022","04/10/2023","02/17/2021","YHORAM","BEN-YSHAY","HABONEH CONSTRUCTION INC","7186767677","GC","0023644",,,,,,,"GARBACZ ALEKSANDER","BRUNCH BUILDERS CORP","INDIVIDUAL","N","N/A","ISAAC","DANNA",,,,,,"9292949460","05/11/2022 00:00:00","3905857","40.618282","-73.964974","44","454","Ocean Parkway South"
"STATEN ISLAND","5067915","203","THORNYCROFT AVE","540218584","01","A2","Y","05289","00054","503","10312","1","YES","SRD",,"OT","ISSUED","INITIAL","EW","01","OT",,"NOT APPLICABLE","05/10/2022","05/10/2022","08/12/2022","05/10/2022","RALPH","MARANDO","J.B.I. CONSTRUCTION GROUP","7187902110","GC","0617234",,,,,,,,,"INDIVIDUAL","N","THIS IS NOT A BUSINESS","JUNE","MURPHY CARROZZA",,,,,,"7189094572","05/11/2022 00:00:00","3905858","40.537587","-74.154776","51","15601","Great Kills"
"BROOKLYN","3039744","91","RALPH AVENUE","340811081","01","A3","Y","01485","00008","303","11221","2","YES",,,"EQ","ISSUED","RENEWAL","EQ","02","OT",,,"05/10/2022","05/10/2022","05/10/2023","05/06/2021","STEVEN","WEISS","MANHATTAN D ENTERPRISES","9175468795","GC","0620856",,,,,,,,,"CORPORATION","N","91 RALPH LLC","BARRY","FARKAS",,,,,,"7184751836","05/11/2022 00:00:00","3905859","40.686912","-73.923501","41","375","Stuyvesant Heights"
"BRONX","2075402","3421","COUNTRY CLUB ROAD","220516118","01","A1","N","05409","00424","210","10465","1","YES",,,,"ISSUED","RENEWAL","AL","07",,,"NOT APPLICABLE","05/10/2022","05/10/2022","11/16/2022","12/15/2017","JOHN","MALABRE","JCT DEVELOPMENT NY INC","8138301034","GC","0606972",,,,,,,"STEVE LARIS, JR","OMADA CONSTRUCTION CORP","INDIVIDUAL","N","SELF","COSMO","MONTEMURRO",,,,,,"9145303057","05/11/2022 00:00:00","3905860","40.839666","-73.815547","13","27402","Pelham Bay-Country Club-City Island"
"BROOKLYN","3185434","60","BAY 34 ST","340733647","01","A2","Y","06861","00067","311","11214","1","YES",,,"OT","ISSUED","INITIAL","EW","01","OT",,"NOT APPLICABLE","06/17/2020","06/17/2020","02/26/2021","06/17/2020","JOHN","SHEN","HENRYSMITH PROPERTY MGMT","7188020246","GC","0037136",,,,,,,,,"INDIVIDUAL","N","N/A","IRIS","LEE","1878","WEST 6 ST","BROOKLYN","NY","11214","9178874243","06/18/2020 00:00:00","3765466","40.599043","-73.992006","47","300","Bensonhurst East"
"QUEENS","4623172","117","BEACH 215 STREET","421538731","01","NB","N","16350","00400","414","11697","1","YES",,,"EQ","ISSUED","RENEWAL","EQ","02","FN",,"USE UNDER 300 CU.YD","06/17/2020","06/17/2020","06/17/2021","06/06/2019","JOHN","NOLAN","CELTIC CONSTRUCTION II","5166371771","GC","0035125",,,,,,,,,"CORPORATION","N","BREEZY POINT COOPERATIVE, INC.","CHRISTOPHER","NORTON","202-30","ROCKAWAY POINT BOULEVARD","ROCKAWAY POINT","NY","11697","7189452300","06/18/2020 00:00:00","3765467","40.554860","-73.923824","32","91601","Breezy Point-Belle Harbor-Rockaway Park-Broad Channel"
"BROOKLYN","3048075","514","HERKIMER STREET","321598080","01","NB","N","01705","00039","303","11213","2","YES",,,,"ISSUED","RENEWAL","NB","05",,,"USE UNDER 300 CU.YD","05/10/2022","05/10/2022","04/01/2023","05/28/2021","AVIV","BEN AVI","AB PLUS R CONSTRUCTION IN","2129257767","GC","0620406",,,,,,,"AVIV BENAVI","AB PLUS R CONSTRUCTIONINC","CORPORATION","N","514 HERKIMER LLC","OREN","SHALEV",,,,,,"7185004686","05/11/2022 00:00:00","3905861","40.678919","-73.936482","36","271","Crown Heights North"
"BRONX","2130442","714","EAST 241 STREET","210180294","01","NB","N","05087","00001","212","10470","2","YES",,,,"ISSUED","INITIAL","FO","01","EA",,"USE UNDER 300 CU.YD","05/10/2022","05/10/2022","07/30/2022","05/10/2022","ANDREW","IMPAGLIAZZO","I.M.P. PLG & HTG CORP","2125642246","GC","0012352",,,,"AFSHIN","JONAIDI JAFARI",,,,"CORPORATION","N","ENCLAVE ON 241 STREET LLC.","JONATHAN","SEPLOWITZ",,,,,,"9142851430","05/11/2022 00:00:00","3905862","40.903135","-73.849777","11","434","Woodlawn-Wakefield"
"BRONX","2130442","714","EAST 241 STREET","210180294","01","NB","N","05087","00001","212","10470","2","YES",,,,"ISSUED","INITIAL","FO","01",,,"USE UNDER 300 CU.YD","05/10/2022","05/10/2022","07/30/2022","05/10/2022","ANDREW","IMPAGLIAZZO","I.M.P. PLG & HTG CORP","2125642246","GC","0012352",,,,"AFSHIN","JONAIDI JAFARI",,,,"CORPORATION","N","ENCLAVE ON 241 STREET LLC.","JONATHAN","SEPLOWITZ",,,,,,"9142851430","05/11/2022 00:00:00","3905863","40.903135","-73.849777","11","434","Woodlawn-Wakefield"
"QUEENS","4020651","26-01","4TH STREET","421058232","01","NB","N","00909","00017","401","11102","2","YES",,,"EQ","ISSUED","RENEWAL","EQ","04","FN",,"ON-SITE","05/10/2022","05/10/2022","05/10/2023","10/02/2019","XIWEN","LIN","HUA YANG INC","7188863885","GC","0038211",,,,,,,,,"PARTNERSHIP","N","MING & GARDEN REALTY LLC","SHAN FEN","ZHANG",,,,,,"3475065100","05/11/2022 00:00:00","3905864","40.775941","-73.932721","22","87","Old Astoria"
"MANHATTAN","1083699","8","PETER COOPER ROAD","123897907","01","A2","Y","00978","00001","106","10010","2","YES",,,"PL","ISSUED","RENEWAL","PL","02",,,"NOT APPLICABLE","05/10/2022","05/10/2022","05/10/2023","06/20/2019","JOSEPH","LAMARCA","CROSSFIELD PLBG.&HTG.CORP","7189618199","MP","0000960",,,,,,,,,"CORPORATION","N","BPP PCV OWNER LLC","RICHARD","HAYDUK",,,,,,"2124205000","05/11/2022 00:00:00","3905865","40.734191","-73.975168","4","60","Stuyvesant Town-Cooper Village"
"BRONX","2130349","4427","WHITE PLAINS ROAD","220694700","01","NB","N","05069","00057","212","10470","2","YES",,,,"ISSUED","RENEWAL","NB","03",,,"USE UNDER 300 CU.YD","05/10/2022","05/10/2022","07/17/2022","05/28/2021","MICHAEL","FRONING","SKF GENERAL CONTRACTORS,","3476159235","GC","0614945",,,,,,,"GARY GERBINO","SKF GENERAL CONTRACTORS","INDIVIDUAL","N","SKF DEVELOPMENT LLC","KIM","TASHER",,,,,,"2126041062","05/11/2022 00:00:00","3905866","40.898971","-73.853874","11","414","Woodlawn-Wakefield"
"QUEENS","4107048","151-20","22 AVE","421788220","01","DM","N","04710","00070","407","11357","1",,,,,"ISSUED","INITIAL","DM","01",,,"USE UNDER 300 CU.YD","05/10/2022","05/10/2022","05/10/2023","05/10/2022","CARMEN","MORA","W.JAKE CONSTRUCTION CORP","3475677746","GC","0620217",,,,,,,"GONZALO POZO","GONZALO POZO","INDIVIDUAL","N","N/A","XINHUA","WANG",,,,,,"6462506222","05/11/2022 00:00:00","3905867","40.778667","-73.811838","19","1033","Whitestone"
"BRONX","2063696","755","EAST 232 STREET","220677621","01","A1","N","04846","00009","212","10466","1","YES",,,,"ISSUED","RENEWAL","AL","03",,,"NOT APPLICABLE","05/10/2022","05/10/2022","05/07/2023","11/07/2019","ANTHONY","BONHEUR","A & M CONSTRUCTION SOLUT*","3475229720","GC","0615508",,,,,,,,,"INDIVIDUAL","N","N/A","OSARODION","TEDDY",,,,,,"7173008601","05/11/2022 00:00:00","3905868","40.892180","-73.855903","12","422","Williamsbridge-Olinville"
"QUEENS","4482328","151-20 GAR","22 AVE","421788211","01","DM","N","04710","00070","407","11357","1",,,,,"ISSUED","INITIAL","DM","01",,,"USE UNDER 300 CU.YD","05/10/2022","05/10/2022","05/10/2023","05/10/2022","CARMEN","MORA","W.JAKE CONSTRUCTION CORP","3475677746","GC","0620217",,,,,,,"GONZALO POZO","GONZALO POZO","INDIVIDUAL","N","N/A","XINHUA","WANG",,,,,,"6462506222","05/11/2022 00:00:00","3905870","40.778667","-73.811838","19","1033","Whitestone"
"BROOKLYN","3424857","249","WILLOUGHBY AVENUE","321195684","01","NB","N","01909","00053","302","11205","2","YES",,,,"ISSUED","RENEWAL","NB","02",,,"ON-SITE","05/10/2022","05/10/2022","08/27/2022","06/02/2021","PATRICK","MCGOWAN","MC GOWAN BUILDERS INC","2018654666","GC","0021418",,,,"REGINA","CINTRON","CR SAFETY",,,"CORPORATION","Y","ST. MARY'S EPISCOPAL CHURCH","GERALD","KEUCHER",,,,,,"3477132218","05/11/2022 00:00:00","3905871","40.692368","-73.961350","35","193","Clinton Hill"
"QUEENS","4436574","49-02","5TH STREET","421807502","01","DM","N","00017","00001","402","11101","2",,"LIC",,"EQ","ISSUED","INITIAL","EQ","01","OT",,"OFF-SITE","05/10/2022","05/10/2022","05/10/2023","05/10/2022","KIERAN","SLEVIN","CELTIC SERVICES NYC INC","7187172721","GC","0613080",,,,,,,,,"CORPORATION","N","50TH & 5TH LIC LLC","PETER","PAPAMICHAEL",,,,,,"5168051584","05/11/2022 00:00:00","3905872","40.743759","-73.956254","26","1","Hunters Point-Sunnyside-West Maspeth"
"QUEENS","4436574","49-02","5TH STREET","421807502","01","DM","N","00017","00001","402","11101","2",,"LIC",,,"ISSUED","INITIAL","DM","01",,,"OFF-SITE","05/10/2022","05/10/2022","05/01/2023","05/10/2022","KIERAN","SLEVIN","CELTIC SERVICES NYC INC","7187172721","GC","0613080",,,,,,,"PAUL BIZZARO","MEGA CONTRACTION GROUP","CORPORATION","N","50TH & 5TH LIC LLC","PETER","PAPAMICHAEL",,,,,,"5168051584","05/11/2022 00:00:00","3905873","40.743759","-73.956254","26","1","Hunters Point-Sunnyside-West Maspeth"
"BROOKLYN","3149134","7624","RIDGE BLVD","320350213","01","A3","Y","05948","00048","310","11209","1","YES","BR",,"EQ","ISSUED","RENEWAL","EQ","06","FN",,,"08/06/2022","08/06/2022","08/06/2023","08/26/2011","PRASANNA","VENKATESHA","DASR CORP","6313601830","GC","0029861",,,,,,,,,"CORPORATION","N","B.D.I. DEVELOPMENT CORP.","BERNICE","BAI",,,,,,"9173316803","08/07/2022 00:00:00","3918453","40.631159","-74.030868","43","44","Bay Ridge"
"QUEENS","4436571","49-18","5TH STREET","421807520","01","DM","N","00017","00001","402","11101","2",,"LIC",,"EQ","ISSUED","INITIAL","EQ","01","OT",,"OFF-SITE","05/10/2022","05/10/2022","05/10/2023","05/10/2022","KIERAN","SLEVIN","CELTIC SERVICES NYC INC","7187172721","GC","0613080",,,,,,,,,"CORPORATION","N","50TH & 5TH LIC LLC","PETER","PAPAMICHAEL",,,,,,"5168051584","05/11/2022 00:00:00","3905876","40.743682","-73.956283","26","1","Hunters Point-Sunnyside-West Maspeth"
"QUEENS","4436571","49-18","5TH STREET","421807520","01","DM","N","00017","00001","402","11101","2",,"LIC",,,"ISSUED","INITIAL","DM","01",,,"OFF-SITE","05/10/2022","05/10/2022","05/01/2023","05/10/2022","KIERAN","SLEVIN","CELTIC SERVICES NYC INC","7187172721","GC","0613080",,,,,,,"PAUL BIZZARO","MEGA CONTRACTION GROUP","CORPORATION","N","50TH & 5TH LIC LLC","PETER","PAPAMICHAEL",,,,,,"5168051584","05/11/2022 00:00:00","3905877","40.743682","-73.956283","26","1","Hunters Point-Sunnyside-West Maspeth"
"QUEENS","4444040","67-10","192ND STREET","440672675","01","A2","N","07117","00003","408","11365","2",,"PC",,"OT","ISSUED","RENEWAL","EW","02","OT",,"NOT APPLICABLE","05/10/2022","05/10/2022","04/25/2023","05/13/2021","YARON","MANDLER","BEST ENERGY POWER 2015 LL","2127302267","GC","0613822",,,,,,,,,"PARTNERSHIP","N","FRESH MEADOWS DEVELOPMENT, LLC","ARI","ROSENFELD",,,,,,"7184546700","05/11/2022 00:00:00","3905878","40.737659","-73.781459","23","1347","Fresh Meadows-Utopia"
"QUEENS","4261273","142-19","ROCKAWAY BLVD.","420785500","01","A2","Y","12036","00092","412","11436","2",,,,"BL","ISSUED","RENEWAL","EW","02","BL",,"NOT APPLICABLE","05/10/2022","05/10/2022","02/12/2023","11/21/2013","BASIL","THOMPSON","KISHAN PLBG & HEATING INC","7185584445","MP","0002233",,,,,,,,,"PARTNERSHIP","N","GOLDEN BRICK DEVEL. JP LLC","PINCHAS","YAKOBOV",,,,,,"3473071535","05/11/2022 00:00:00","3905879","40.674074","-73.798092","28","182","Baisley Park"
"QUEENS","4210644","85-19","164TH ST","421679909","01","A2","Y","09847","00022","408","11432","1","YES",,,"OT","ISSUED","RENEWAL","EW","02","OT",,"NOT APPLICABLE","05/10/2022","05/10/2022","02/08/2023","11/01/2018","DONOVAN","PETGRAVE","DONOVAN PETGRAVE","6463022318","GC","0618141",,,,,,,,,"INDIVIDUAL","N","N/A","AMMHA","WOUBATU",,,,,,"3476120237","05/11/2022 00:00:00","3905880","40.712055","-73.800956","24","448","Briarwood-Jamaica Hills"
"QUEENS","4113529","147-22","NORTHERN BLVD","421515765","01","A2","Y","05016","00033","407","11354","2",,,,"PL","ISSUED","RENEWAL","PL","02",,,"NOT APPLICABLE","05/10/2022","05/10/2022","05/10/2023","11/14/2017","RAYMOND","MUCCI","CROSSFIELD P & H CORP","7189618199","MP","0000989",,,,,,,,,"CORPORATION","N","147-22-32 NORTHERN, LLC","DEMETRIOS","DRALLIOS",,,,,,"9178367296","05/11/2022 00:00:00","3905881","40.765166","-73.819089","20","1163","Murray Hill"
"BROOKLYN","3104487","5321","BEVERLEY ROAD","321437094","01","A1","N","04738","00033","317","11203","1","YES",,,,"ISSUED","RENEWAL","AL","04",,,"NOT APPLICABLE","05/10/2022","05/10/2022","08/20/2022","08/06/2018","RAHMAN","MAHFUJUR","TUR CONTRACTING INC","6462716816","GC","0619401",,,,,,,,,"INDIVIDUAL","N","N/A","RAHMAN","MAHFUJUR",,,,,,"6462716816","05/11/2022 00:00:00","3905883","40.646524","-73.926606","45","848","Rugby-Remsen Village"
"QUEENS","4261273","142-19","ROCKAWAY BLVD.","420517514","01","A2","Y","12036","00092","412","11436","2",,,,"PL","ISSUED","RENEWAL","PL","02",,,"NOT APPLICABLE","05/10/2022","05/10/2022","05/10/2023","12/23/2011","BASIL","THOMPSON","KISHAN PLBG & HEATING INC","7185584445","MP","0002233",,,,,,,,,"PARTNERSHIP","N","GOLDEN BRICK DEVEL. JP LLC","PINCHAS","YAKOBOV",,,,,,"3473071535","05/11/2022 00:00:00","3905884","40.674074","-73.798092","28","182","Baisley Park"
"MANHATTAN","1024850","1710","BROADWAY","123906933","01","DM","N","01026","00021","105","10019","2",,"MID",,"EQ","ISSUED","INITIAL","EQ","01","OT",,"ON-SITE","05/10/2022","05/20/2022","05/20/2023","05/20/2022","TOBY","ROMANO, JR","BREEZE NATIONAL INC","7182548070","GC","0002689",,,,,,,,,"CORPORATION","N","OWNER DEED: 1710 BWAY LLC","DAVID","ROTHSTEIN",,,,,,"2127126000","05/21/2022 00:00:00","3905885","40.764225","-73.982391","4","137","Midtown-Midtown South"
"QUEENS","4137235","38-35","208 STREET","440701527","01","A2","Y","06212","00004","411","11361","1","YES",,,"OT","ISSUED","RENEWAL","EW","02","OT",,"NOT APPLICABLE","05/10/2022","06/02/2022","04/15/2023","01/07/2022","CARLO","LANZA","HARVEST POWER LLC","6316473402","GC","0614230",,,,,,,,,"INDIVIDUAL","N","N/A","MICHAEL","FELLER",,,,,,"9175727581","06/03/2022 00:00:00","3905882","40.764214","-73.778350","19","1129","Bayside-Bayside Hills"
"BRONX","2083199","280","WEST 231ST STREET","220132719","01","A1","N","05711","00030","208","10463","2",,,,,"ISSUED","RENEWAL","AL","05",,,"NOT APPLICABLE","05/10/2022","06/14/2022","03/01/2023","11/13/2012","ROBERT","MIAZGA","R'POL CONSTRUCTION INC","9174024192","GC","0610380",,,,,,,,,"INDIVIDUAL","N","N/A","JACOB","SINAI",,,,,,"9175590253","06/15/2022 00:00:00","3905869","40.880456","-73.907757","11","289","Spuyten Duyvil-Kingsbridge"
"BROOKLYN","3428918","1296","NEW YORK AVENUE","321588224","01","NB","N","04949","00041","317","11203","2","YES",,,,"ISSUED","RENEWAL","NB","02",,,"ON-SITE","05/10/2022","05/10/2022","04/01/2023","04/18/2022","YOSEF","GRUBER","M & Y DEVELOPERS, INC","7188556670","GC","0600255",,,,,,,"JOEL BRULL","LOWVOL TECH ENTERPRISES","INDIVIDUAL","N","1296 NY AVE LLC","JOEL","BLATTER",,,,,,"9174402800","05/11/2022 00:00:00","3905886","40.641580","-73.945684","45","830","East Flatbush-Farragut"
"BRONX","2086811","2011","VYSE AVE","240289923","01","NB","N","03127","00025","206","10460","2","YES",,,,"ISSUED","RENEWAL","NB","02",,,"USE UNDER 300 CU.YD","05/10/2022","05/10/2022","10/18/2022","05/14/2021","LIN","KUMBULLAJ","KIRI CONSTRUCTION CORP","9143387633","GC","0604551",,,,,,,"EGLANTINA KUMBULLAJ","KIRI CONSTRUCTION CORP","INDIVIDUAL","N","2011 VYSE REALTY, LLC","MEER","AHMED",,,,,,"9145845588","05/11/2022 00:00:00","3905887","40.842322","-73.881900","17","363","East Tremont"
"MANHATTAN","1076192","228","WEST 47 STREET","122866826","01","A2","N","01018","00018","105","10036","2",,"MID",,"OT","ISSUED","RENEWAL","EW","07","OT",,"NOT APPLICABLE","05/10/2022","05/10/2022","05/01/2023","09/28/2018","JOHN","VENETIS","VEMAGROUP LLC","2122475658","GC","0612969",,,,"JEFFREY","SOCOL",,,,"PARTNERSHIP","N","EDISON MANAGEMENT","MICHAEL","LEFKOWITZ",,,,,,"2124534000","05/11/2022 00:00:00","3905888","40.759727","-73.985886","3","125","Midtown-Midtown South"
"BRONX","2086811","2011","VYSE AVE","240289923","01","NB","N","03127","00025","206","10460","2","YES",,,,"ISSUED","RENEWAL","FO","02",,,"USE UNDER 300 CU.YD","05/10/2022","05/10/2022","10/18/2022","05/14/2021","LIN","KUMBULLAJ","KIRI CONSTRUCTION CORP","9143387633","GC","0604551",,,,,,,"EGLANTINA KUMBULLAJ","KIRI CONSTRUCTION CORP","INDIVIDUAL","N","2011 VYSE REALTY, LLC","MEER","AHMED",,,,,,"9145845588","05/11/2022 00:00:00","3905889","40.842322","-73.881900","17","363","East Tremont"
"BRONX","2086811","2011","VYSE AVE","240289923","01","NB","N","03127","00025","206","10460","2","YES",,,,"ISSUED","RENEWAL","FO","02","EA",,"USE UNDER 300 CU.YD","05/10/2022","05/10/2022","10/18/2022","05/14/2021","LIN","KUMBULLAJ","KIRI CONSTRUCTION CORP","9143387633","GC","0604551",,,,,,,"EGLANTINA KUMBULLAJ","KIRI CONSTRUCTION CORP","INDIVIDUAL","N","2011 VYSE REALTY, LLC","MEER","AHMED",,,,,,"9145845588","05/11/2022 00:00:00","3905890","40.842322","-73.881900","17","363","East Tremont"
"MANHATTAN","1057619","135","W 120 ST","140470960","01","A2","Y","01905","00014","110","10027","1","YES",,,"PL","ISSUED","RENEWAL","PL","04",,,"NOT APPLICABLE","05/10/2022","05/10/2022","05/10/2023","05/04/2016","ALAN","MITCHELL","A. M. PLUMBING COMPANY","7188558360","MP","0001253",,,,,,,,,"INDIVIDUAL","N","N/A","MARCUS","MITCHELL",,,,,,"6464603018","05/11/2022 00:00:00","3905891","40.805065","-73.948924","9","220","Central Harlem South"
"MANHATTAN","1046256","535","EAST 70TH STREET","123046266","03","A2","N","01482","00020","108","10021","2",,,,"PL","ISSUED","RENEWAL","PL","05",,,,"05/10/2022","05/10/2022","05/10/2023","06/15/2017","THOMAS","PEPE","RIEHM PLUMBING CORP","7185854540","MP","0000175",,,,,,,,,"CORPORATION","Y","HOSPITAL FOR SPECIAL SURGERY","LISA","GOLDSTEIN",,,,,,"2126061236","05/11/2022 00:00:00","3905892","40.765211","-73.953886","5","124","Lenox Hill-Roosevelt Island"
"MANHATTAN","1091618","72","EAST 120 STREET","121207773","01","NB","N","01746","00033","111","10035","2","YES",,,,"ISSUED","INITIAL","FO","01","EA",,"OFF-SITE","05/10/2022","05/10/2022","07/05/2022","05/10/2022","JOSEPH","FERRARA","BRONX COMMONS BUILDERS LL","7184229999","GC","0616746",,,,"MICHAEL","MAFFEI",,,,"CORPORATION","N","PARK AVE PARKING, LLC","BRANDON","BARON",,,,,,"7184229999","05/11/2022 00:00:00","3905893","40.802161","-73.942071","9","198","East Harlem North"
"MANHATTAN","1091618","72","EAST 120 STREET","121207773","01","NB","N","01746","00033","111","10035","2","YES",,,,"ISSUED","INITIAL","FO","01",,,"OFF-SITE","05/10/2022","05/10/2022","07/05/2022","05/10/2022","JOSEPH","FERRARA","BRONX COMMONS BUILDERS LL","7184229999","GC","0616746",,,,"MICHAEL","MAFFEI",,,,"CORPORATION","N","PARK AVE PARKING, LLC","BRANDON","BARON",,,,,,"7184229999","05/11/2022 00:00:00","3905894","40.802161","-73.942071","9","198","East Harlem North"
"MANHATTAN","1091603","77","EAST 118TH STREET","121207764","01","NB","N","01745","00134","111","10035","2","YES",,,,"ISSUED","INITIAL","FO","01","EA",,"OFF-SITE","05/10/2022","05/10/2022","04/01/2023","05/10/2022","SANFORD","LOEWENTHEIL","CHATSWORTH BUILDERS LLC","9148333000","GC","0600849",,,,"LOUIE","AGNEW","CR SAFETY GROUP",,,"CORPORATION","N","PARK AVE PARKING, LLC","BRANDON","BARON",,,,,,"7184229999","05/11/2022 00:00:00","3905895","40.800923","-73.943000","9","184","East Harlem North"
"BROOKLYN","3153179","457","86TH STREET","340785662","01","A1","N","06035","00056","310","11209","2",,"BR",,,"ISSUED","RENEWAL","AL","02",,,"NOT APPLICABLE","05/10/2022","05/10/2022","04/01/2023","06/25/2021","MICHAEL","MARINO","MJM ASSOCIATES CONSTR LLC","6469745500","GC","0600725",,,,,,,"FRANCO BARONE","MJM ASSOCIATES CONSTR LLC","PARTNERSHIP","N","LION 457 LLC","JOSHUA","POSNER",,,,,,"2123983970","05/11/2022 00:00:00","3905896","40.622086","-74.027168","43","138","Bay Ridge"
"MANHATTAN","1091603","77","EAST 118TH STREET","121207764","01","NB","N","01745","00134","111","10035","2","YES",,,,"ISSUED","INITIAL","FO","01",,,"OFF-SITE","05/10/2022","05/10/2022","04/01/2023","05/10/2022","SANFORD","LOEWENTHEIL","CHATSWORTH BUILDERS LLC","9148333000","GC","0600849",,,,"LOUIE","AGNEW","CR SAFETY GROUP",,,"CORPORATION","N","PARK AVE PARKING, LLC","BRANDON","BARON",,,,,,"7184229999","05/11/2022 00:00:00","3905897","40.800923","-73.943000","9","184","East Harlem North"
"QUEENS","4117458","45-12","SMART ST","421574718","01","NB","N","05203","00009","407","11355","2",,,,,"ISSUED","RENEWAL","NB","04",,,"USE UNDER 300 CU.YD","05/10/2022","05/10/2022","09/24/2022","03/23/2021","CECILIA","LIN","TT&T CONSTRUCTION INC","6465124826","GC","0621811",,,,,,,"XIAOHONG ZHAO","AMERILAND BROOK LLC","CORPORATION","N","4512 SMART LLC","ZICHUN","ZHANG",,,,,,"7185945684","05/11/2022 00:00:00","3905898","40.753896","-73.817312","20","1205","East Flushing"
"BROOKLYN","3016953","522","17 STREET","321148628","01","NB","N","00877","00019","307","11215","1","YES",,,,"ISSUED","RENEWAL","NB","08",,,"ON-SITE","08/07/2022","08/07/2022","08/02/2023","12/10/2018","CHRISTOPHER","PERSAUD","NY DYNAMIC CONSTRUCTION C","3472496356","GC","0619653",,,,,,,,,"INDIVIDUAL","N","DRS BUILDERS LLC","JEFF","CORMAN",,,,,,"9178425400","08/08/2022 00:00:00","3918454","40.657756","-73.981435","38","169","Windsor Terrace"
"MANHATTAN","1042526","160","EAST 70TH STREET","123431072","01","A2","Y","01404","00147","108","10021","2","YES","LH-1A",,"PL","ISSUED","RENEWAL","PL","04",,,"NOT APPLICABLE","05/10/2022","05/10/2022","05/10/2023","03/23/2020","LESLIE","HELD","AMOK INC","3474927244","MP","0000411",,,,,,,,,"INDIVIDUAL","N","NA","EHREN","STENZLER",,,,,,"9178593706","05/11/2022 00:00:00","3905900","40.768837","-73.962537","4","120","Upper East Side-Carnegie Hill"
"MANHATTAN","1087604","3966","10TH AVENUE","123907932","01","DM","N","02229","00025","112","10034","2",,"IN",,"EQ","ISSUED","INITIAL","EQ","01","OT",,"ON-SITE","05/10/2022","05/10/2022","05/10/2023","05/10/2022","ANDREW","HORAN","ALBA SERVICES INC","9172170459","GC","0612573",,,,,,,,,"CORPORATION","Y","INWOODHOUSINGDEVELOPMENTFUNDCORP","LAWRENCE","ROSENBLATT",,,,,,"2128035300","05/11/2022 00:00:00","3905901","40.867431","-73.916752","10","303","Marble Hill-Inwood"
"MANHATTAN","1087604","3966","10TH AVENUE","123907932","01","DM","N","02229","00025","112","10034","2",,"IN",,,"ISSUED","INITIAL","DM","01",,,"ON-SITE","05/10/2022","05/10/2022","04/03/2023","05/10/2022","ANDREW","HORAN","ALBA SERVICES INC","9172170459","GC","0612573",,,,,,,"MIGUEL RAMOS","ALBA SERVICES INC","CORPORATION","Y","INWOODHOUSINGDEVELOPMENTFUNDCORP","LAWRENCE","ROSENBLATT",,,,,,"2128035300","05/11/2022 00:00:00","3905902","40.867431","-73.916752","10","303","Marble Hill-Inwood"
"STATEN ISLAND","5022754","25","BENEDICT RD","520388713","01","A2","N","00876","00025","502","10304","1","YES","NA-1",,"OT","ISSUED","RENEWAL","EW","02","OT",,"NOT APPLICABLE","05/10/2022","05/10/2022","10/07/2022","12/20/2021","TAREK","AL KALASH","K-LASH CONSTRUCTION CORP","9176792660","GC","0623254",,,,,,,"AMY MUI","RAY-AN ESTATES INC","INDIVIDUAL","N","SELF","MOHAMMED","ABUZAHRIEH",,,,,,"9173485893","05/11/2022 00:00:00","3905903","40.596569","-74.107767","50","177","Todt Hill-Emerson Hill-Heartland Village-Lighthouse Hill"
"QUEENS","4058991","51-09","GRAND AVE","420664677","01","A1","N","02610","00118","405","11378","2",,,,,"ISSUED","RENEWAL","AL","05",,,"NOT APPLICABLE","05/10/2022","05/10/2022","04/29/2023","10/26/2020","JIN","LIN","JIN SUN CONSTRUCTION INC","9174171769","GC","0618159",,,,,,,"TOMMY CHIU","TOMMY CHIU BUILDING CORP","CORPORATION","N","WENDI REALTY, LLC","KI TAI","YEUNG",,,,,,"7188215050","05/11/2022 00:00:00","3905904","40.717811","-73.917910","30","219","Hunters Point-Sunnyside-West Maspeth"
"MANHATTAN","1028231","2","W 67TH ST","140840865","01","A2","N","01119","00036","107","10023","2","YES",,,"PL","ISSUED","RENEWAL","PL","02",,,"NOT APPLICABLE","05/10/2022","05/10/2022","05/10/2023","11/09/2020","ANTHONY","DISABATO","ACCURATE MECHANICAL INC","7188283640","MP","0001342",,,,,,,,,"CONDO/CO-OP","N","SHAREHOLDER","PAULA","SILVER",,,,,,"3103870497","05/11/2022 00:00:00","3905905","40.773205","-73.978713","6","153","Lincoln Square"
"STATEN ISLAND","5141714","450","WEST SERVICE ROAD","520300479","01","A2","Y","02685","00100","502","10314","2",,,,"OT","ISSUED","RENEWAL","EW","02","OT",,"NOT APPLICABLE","05/10/2022","05/10/2022","05/08/2023","06/10/2021","PAUL","TOTH","PAUL TOTH EXCAVATION INC","7183565146","GC","0003105",,,,,,,,,"NYC AGENCY","N","NYC DEPARTMENT OF SANITATION","KIRK","TOMLINSON",,,,,,"2124374670","05/11/2022 00:00:00","3905906","40.583744","-74.193041","50","228","New Springville-Bloomfield-Travis"
"BROOKLYN","3246745","1601","ORIENTAL BOULEVARD","320916648","01","A1","N","08757","00023","315","11235","1","YES",,,,"ISSUED","RENEWAL","AL","04",,,"USE UNDER 300 CU.YD","05/10/2022","05/10/2022","05/12/2023","08/13/2021","JANEK","LAINESTE","DELTAMER, INC","9176536041","GC","0605664",,,,,,,"VIKTORIYA MIDYANY","COPPER MECHANICAL INC","INDIVIDUAL","N","N/A","VIKTORIYA","MIDYANY",,,,,,"6466437676","05/11/2022 00:00:00","3905907","40.578389","-73.938726","48","616","Sheepshead Bay-Gerritsen Beach-Manhattan Beach"
"BROOKLYN","3016952","520","17 STREET","320355138","01","NB","N","00877","00018","307","11215","1","YES",,,,"ISSUED","RENEWAL","NB","08",,,"ON-SITE","08/07/2022","08/07/2022","08/02/2023","12/10/2018","CHRISTOPHER","PERSAUD","NY DYNAMIC CONSTRUCTION C","3472496356","GC","0619653",,,,,,,,,"INDIVIDUAL","N","DRS BUILDERS LLC","JEFF","COMAN",,,,,,"9178425400","08/08/2022 00:00:00","3918455","40.657783","-73.981482","38","169","Windsor Terrace"
"QUEENS","4595392","233-17","38 DRIVE","420943288","01","NB","N","08059","00030","411","11363","1","YES",,,"EQ","ISSUED","RENEWAL","EQ","02","FN",,"USE UNDER 300 CU.YD","05/10/2022","05/10/2022","05/10/2023","06/01/2018","JOSEPHINE","VALENZA-ARAGONESI","SV BUILDING SERVICES INC","7183577181","GC","0618426",,,,,,,,,"CORPORATION","N","233-20 BAY STREET LLC","SAL","VALENZA",,,,,,"7183572663","05/11/2022 00:00:00","3905910","40.770256","-73.753134","19","1483","Douglas Manor-Douglaston-Little Neck"
"QUEENS","4595392","233-17","38 DRIVE","420943288","01","NB","N","08059","00030","411","11363","1","YES",,,,"ISSUED","RENEWAL","FO","02","EA",,"USE UNDER 300 CU.YD","05/10/2022","05/10/2022","08/09/2022","06/06/2018","JOSEPHINE","VALENZA-ARAGONESI","SV BUILDING SERVICES INC","7183577181","GC","0618426",,,,,,,,,"CORPORATION","N","233-20 BAY STREET LLC","SAL","VALENZA",,,,,,"7183572663","05/11/2022 00:00:00","3905912","40.770256","-73.753134","19","1483","Douglas Manor-Douglaston-Little Neck"
"QUEENS","4595392","233-17","38 DRIVE","420943288","01","NB","N","08059","00030","411","11363","1","YES",,,,"ISSUED","RENEWAL","NB","03",,,"USE UNDER 300 CU.YD","05/10/2022","05/10/2022","08/09/2022","06/06/2018","JOSEPHINE","VALENZA-ARAGONESI","SV BUILDING SERVICES INC","7183577181","GC","0618426",,,,,,,,,"CORPORATION","N","233-20 BAY STREET LLC","SAL","VALENZA",,,,,,"7183572663","05/11/2022 00:00:00","3905913","40.770256","-73.753134","19","1483","Douglas Manor-Douglaston-Little Neck"
"QUEENS","4595392","233-17","38 DRIVE","420943288","01","NB","N","08059","00030","411","11363","1","YES",,,,"ISSUED","RENEWAL","FO","02",,,"USE UNDER 300 CU.YD","05/10/2022","05/10/2022","08/09/2022","06/06/2018","JOSEPHINE","VALENZA-ARAGONESI","SV BUILDING SERVICES INC","7183577181","GC","0618426",,,,,,,,,"CORPORATION","N","233-20 BAY STREET LLC","SAL","VALENZA",,,,,,"7183572663","05/11/2022 00:00:00","3905914","40.770256","-73.753134","19","1483","Douglas Manor-Douglaston-Little Neck"
"MANHATTAN","1024743","226","WEST 47 STREET","122668595","01","A2","N","01018","00044","105","10036","2",,"MID",,"OT","ISSUED","RENEWAL","EW","09","OT",,"NOT APPLICABLE","05/10/2022","05/10/2022","05/01/2023","04/20/2016","JOHN","VENETIS","VEMAGROUP LLC","2122475658","GC","0612969",,,,,,,,,"INDIVIDUAL","N","226 REALTY LLC","GERALD","BARAD",,,,,,"2124534068","05/11/2022 00:00:00","3905915","40.759713","-73.985854","3","125","Midtown-Midtown South"
"BROOKLYN","3141105","1401","60TH STREET","321540515","01","NB","N","05713","00001","312","11219","1","YES",,,"PL","ISSUED","RENEWAL","PL","04",,,"ON-SITE","08/07/2022","08/07/2022","08/07/2023","08/12/2020","EFRAIM","KAZTOW","YG SERVICES INC","9292775511","MP","0002497",,,,,,,,,"PARTNERSHIP","N","5919 LLC","MAYER","LAUFER",,,,,,"7182721050","08/08/2022 00:00:00","3918456","40.627318","-73.996008","44","242","Borough Park"
"QUEENS","4021779","69-04","DITMARS BLVD","421468156","01","A2","Y","01001","00002","401","11370","1","YES",,,"OT","ISSUED","RENEWAL","EW","02","OT",,"NOT APPLICABLE","05/10/2022","05/10/2022","11/02/2022","04/10/2017","CHRISOVALANDIS","MINADAKIS","PRIVILEGE CONSTRUCTION CO","7186061554","GC","0610361",,,,,,,,,"CORPORATION","N","69-04 DITMARS BLVD LLC","CHRIS","MINADAKIS",,,,,,"9174767449","05/11/2022 00:00:00","3905917","40.768231","-73.899526","22","317","Steinway"
"QUEENS","4226244","214-69","JAMAICA AVENUE","440626832","01","A2","Y","10606","00264","413","11428","2",,,,"OT","ISSUED","RENEWAL","EW","02","OT",,"NOT APPLICABLE","05/10/2022","05/10/2022","06/04/2022","10/08/2020","PRINCE","AWONUGA","LAPRIP INVESTORS INC","6469867981","GC","0622954",,,,,,,,,"INDIVIDUAL","N","N/A","CLARK","REMY",,,,,,"9172919910","05/11/2022 00:00:00","3905918","40.716952","-73.741423","23","542","Queens Village"
"QUEENS","4618903","42-21","165 STREET","421909581","01","NB","N","05396","00011","407","11358","2",,,,,"ISSUED","RENEWAL","NB","03",,,"USE UNDER 300 CU.YD","05/10/2022","05/10/2022","04/29/2023","03/23/2021","JIN","LIN","JIN SUN CONSTRUCTION INC","9174171769","GC","0618159",,,,,,,"XIAOHONG ZHAO","AMERILAND BROOK LLC","CORPORATION","N","CF SANFORD COMPANY, LLC","QI LIN","CHEN",,,,,,"9175192606","05/11/2022 00:00:00","3905919","40.759447","-73.801284","20","1185","East Flushing"
"QUEENS","4618849","43-16","24TH STREET","421249027","01","NB","N","00436","00010","402","11101","2",,"LIC",,,"ISSUED","RENEWAL","NB","07",,,"USE UNDER 300 CU.YD","05/10/2022","05/10/2022","06/01/2022","11/18/2016","STEPHEN","MARTINELLI","CARMEL CONSTRUCTION EAST","2122025777","GC","0622296",,,,,,,"ANGELO INGRATI","LEEDING BUILDERS GROUP LL","CORPORATION","N","CARMEL PARTNERS","LEE","BLOCH",,,,,,"2122025787","05/11/2022 00:00:00","3905920","40.749018","-73.943200","26","19","Hunters Point-Sunnyside-West Maspeth"
"MANHATTAN","1076192","228","WEST 47TH STREET","122414057","01","A2","N","01018","00018","105","10036","2",,"MID",,"MH","ISSUED","RENEWAL","EW","09","MH",,"NOT APPLICABLE","05/10/2022","05/10/2022","05/01/2023","12/17/2015","JOHN","VENETIS","VEMAGROUP LLC","2122475658","GC","0612969",,,,,,,,,"PARTNERSHIP","N","EDISON MANAGEMENT LLC","GERALD","BARAD",,,,,,"2124534068","05/11/2022 00:00:00","3905921","40.759727","-73.985886","3","125","Midtown-Midtown South"
"MANHATTAN","1057170","311","WEST 100TH ST","123667102","01","A1","N","01889","00113","107","10025","1","YES",,,,"ISSUED","RENEWAL","AL","02",,,"NOT APPLICABLE","05/10/2022","05/13/2022","03/27/2023","04/26/2019","THEMISTOKLIS","HARALABIDES","REBUILD WORKSHOP LLC","7185357980","GC","0613693",,,,,,,,,"INDIVIDUAL","N","N/A","PAOLO","MANZOLI",,,,,,"9176981491","05/14/2022 00:00:00","3905911","40.798077","-73.971937","6","187","Upper West Side"
"MANHATTAN","1813028","699","EAST 6 STREET","121328615","01","NB","N","00376","00001","103","10009","2","YES",,,,"ISSUED","RENEWAL","NB","03",,,"ON-SITE","05/10/2022","05/23/2022","05/01/2023","07/27/2020","JACOB","KATZ","HI-TOWER CONTRACTORS INC","7188513230","GC","0002796",,,,,,,"SALVATORE RASIZZI","LA NOSTRA VITA LLC","PARTNERSHIP","N","113 WILLOW AVENUE REALTY CO. LLC","JONAH","KRIGER",,,,,,"7186776500","05/24/2022 00:00:00","3905908","40.723537","-73.979331","2","2602","Lower East Side"
"QUEENS","4618849","43-16","24TH STREET","421249027","01","NB","N","00436","00010","402","11101","2",,"LIC",,"EQ","ISSUED","RENEWAL","EQ","07","FN",,"USE UNDER 300 CU.YD","05/10/2022","05/10/2022","05/10/2023","08/11/2016","STEPHEN","MARTINELLI","CARMEL CONSTRUCTION EAST","2122025777","GC","0622296",,,,,,,,,"CORPORATION","N","CARMEL PARTNERS","LEE","BLOCH",,,,,,"2122025787","05/11/2022 00:00:00","3905922","40.749018","-73.943200","26","19","Hunters Point-Sunnyside-West Maspeth"
"MANHATTAN","1076192","228","WEST 47 STREET","122686717","01","A2","N","01018","00018","105","10036","2",,"MID",,"OT","ISSUED","RENEWAL","EW","09","OT",,"NOT APPLICABLE","05/10/2022","05/10/2022","05/01/2023","05/20/2016","JOHN","VENETIS","VEMAGROUP LLC","2122475658","GC","0612969",,,,,,,,,"INDIVIDUAL","N","EDISON MANAGEMENT LLC","MICHAEL","LEFKOWITZ",,,,,,"2124534072","05/11/2022 00:00:00","3905924","40.759727","-73.985886","3","125","Midtown-Midtown South"
"MANHATTAN","1007496","231","MOTT STREET","123414812","01","A2","Y","00494","00024","102","10012","2",,"LI",,"PL","ISSUED","RENEWAL","PL","03",,,"NOT APPLICABLE","05/10/2022","05/10/2022","05/10/2023","02/04/2019","SIMON","HUNG","QMB PLUMBING & HEATING IN","7187281883","MP","0001892",,,,,,,,,"CORPORATION","N","HOP YICK CORP.","SHIH","SELINA",,,,,,"2124069280","05/11/2022 00:00:00","3905925","40.722537","-73.995119","1","43","SoHo-TriBeCa-Civic Center-Little Italy"
"MANHATTAN","1076192","219","WEST 46TH STREET","122632972","01","A2","N","01018","00018","105","10036","2",,"MID",,"OT","ISSUED","RENEWAL","EW","09","OT",,"NOT APPLICABLE","05/10/2022","05/10/2022","05/01/2023","05/05/2016","JOHN","VENETIS","VEMAGROUP LLC","2122475658","GC","0612969",,,,,,,,,"PARTNERSHIP","N","226 REALTY LLC","GERALD","BARAD",,,,,,"2124534068","05/11/2022 00:00:00","3905927","40.759008","-73.986052","3","125","Midtown-Midtown South"
"BROOKLYN","3244226","2236","EAST 63RD STREET","321936438","01","A1","N","08656","00031","318","11234","1","YES",,,"PL","ISSUED","RENEWAL","PL","02",,,"USE UNDER 300 CU.YD","05/10/2022","05/10/2022","05/10/2023","05/06/2021","NICHOLAS","KIOUZELLIS","GW MECHANICAL CORP","7183830294","MP","0000642",,,,,,,,,"INDIVIDUAL","N","SELF","ANNA","GOLDSHMIDT",,,,,,"6463866148","05/11/2022 00:00:00","3905928","40.613770","-73.910697","46","70201","Georgetown-Marine Park-Bergen Beach-Mill Basin"
"MANHATTAN","1030866","250","WEST 77TH STREET","110344226","01","A2","N","01168","00056","107","10024","2","YES",,,"OT","ISSUED","RENEWAL","EW","15","OT",,"NOT APPLICABLE","05/10/2022","05/10/2022","05/01/2023","06/11/2010","JOHN","VENETIS","VEMAGROUP LLC","2122475658","GC","0612969",,,,,,,,,"PARTNERSHIP","N","BELLECLAIRE HOTEL","LISA","COSTA",,,,,,"2124534274","05/11/2022 00:00:00","3905929","40.782656","-73.981270","6","163","Upper West Side"
"STATEN ISLAND","5088624","5517","ARTHUR KILL ROAD","520265249","01","NB","N","08005","00030","503","10307","1","YES","SRD",,"EQ","ISSUED","RENEWAL","EQ","07","FN",,"ON-SITE","05/10/2022","05/10/2022","05/10/2023","02/14/2017","JOHN","HOLLEY","BIG CITY PAVING & CONSTRU","7189672700","GC","0004139",,,,,,,,,"CORPORATION","N","5517 ARTHUR KILL ROAD, LLC","GEORGE","SMITH",,,,,,"7189791313","05/11/2022 00:00:00","3905930","40.510690","-74.252683","51","248","Charleston-Richmond Valley-Tottenville"
"BRONX","2124434","1","BOWNE STREET","220340842","01","NB","N","05634","00033","210","10464","2",,"CD",,,"ISSUED","RENEWAL","NB","10",,,"USE UNDER 300 CU.YD","05/10/2022","05/10/2022","04/01/2023","05/04/2016","BERNARDINO","ESPOSITO","C.I. CONTRACTING CORP","9142053333","GC","0018206",,,"1289609",,,,"ANTHONY DURANTE",,"CORPORATION","N","D & D BOWNE ST. REALTY CORP.","AIMEE","BREEN",,,,,,"7188851940","05/11/2022 00:00:00","3905931",,,,,
"MANHATTAN","1030866","250","WEST 77TH STREET","110344226","02","A2","N","01168","00056","107","10024","2",,,,"MH","ISSUED","RENEWAL","EW","16","MH",,,"05/10/2022","05/10/2022","05/01/2023","06/11/2010","JOHN","VENETIS","VEMAGROUP LLC","2122475658","GC","0612969",,,,,,,,,"PARTNERSHIP","N","BELLECLAIRE HOTEL","LISA","COSTA",,,,,,"2124534274","05/11/2022 00:00:00","3905932","40.782656","-73.981270","6","163","Upper West Side"
"MANHATTAN","1057145","332","WEST 101 STREET","122785307","01","A2","N","01889","00033","107","10025","2","YES",,,"OT","ISSUED","RENEWAL","EW","03","OT",,"NOT APPLICABLE","05/10/2022","05/10/2022","09/18/2022","07/11/2016","NICHOLAS","MOONS","MONTESBUILD INC","2126454690","GC","0039726",,,,,,,,,"CORPORATION","N","332 WEST 101ST STREET OWNERS COR","ALEX","DELASZLO",,,,,,"2126651542","05/11/2022 00:00:00","3905933","40.798702","-73.971510","6","187","Upper West Side"
"STATEN ISLAND","5166270","5511","ARTHUR KILL ROAD","520265258","01","NB","N","08005","00028","503","10307","1","YES","SRD",,"EQ","ISSUED","RENEWAL","EQ","07","FN",,"ON-SITE","05/10/2022","05/10/2022","05/10/2023","02/08/2017","JOHN","HOLLEY","BIG CITY PAVING & CONSTRU","7189672700","GC","0004139",,,,,,,,,"CORPORATION","N","5517 ARTHUR KILL ROAD, LLC","GEORGE","SMITH",,,,,,"7189791313","05/11/2022 00:00:00","3905934","40.510885","-74.252594","51","248","Charleston-Richmond Valley-Tottenville"
"MANHATTAN","1034124","677","WEST END AVENUE","140983568","01","A2","N","01252","00020","107","10025","2","YES",,,"OT","ISSUED","RENEWAL","EW","02","OT",,"NOT APPLICABLE","08/07/2022","08/07/2022","08/25/2023","07/28/2021","RASULEV","AZAMAT","FRSS GROUP CORP","6316201144","GC","0621052",,,,,,,,,"CONDO/CO-OP","N","N/A","INA","RABINOVICH",,,,,,"2125790625","08/08/2022 00:00:00","3918457","40.793189","-73.974730","6","179","Upper West Side"
"BRONX","2067932","4035","AMUNDSON AVE","240274154","01","A2","Y","04988","00066","212","10466","1","YES",,,"OT","ISSUED","INITIAL","EW","01","OT",,"NOT APPLICABLE","06/17/2020","06/17/2020","10/01/2020","06/17/2020","PAUL","JOYCE","SUNRUN INSTALLATION SVC","8055407643","GC","0613329",,,,,,,,,"INDIVIDUAL","N","N/A","TAPLEY","LEWIS","4035","AMUNDSON AVE","BRONX","NY","10466","6466337116","06/18/2020 00:00:00","3765538","40.892515","-73.836849","12","426","Woodlawn-Wakefield"
"MANHATTAN","1030866","250","WEST 77TH STREET","123061104","01","A2","N","01168","00056","107","10024","2","YES",,,"OT","ISSUED","RENEWAL","EW","08","OT",,"NOT APPLICABLE","05/10/2022","05/10/2022","05/01/2023","10/12/2017","JOHN","VENETIS","VEMAGROUP LLC","2122475658","GC","0612969",,,,,,,,,"PARTNERSHIP","N","BELLECLAIRE HOTEL","ANNA","FUENTAS",,,,,,"2124534274","05/11/2022 00:00:00","3905936","40.782656","-73.981270","6","163","Upper West Side"
"MANHATTAN","1030839","215","WEST 75 STREET","140885889","01","A2","N","01167","07501","107","10023","2","YES",,,"OT","ISSUED","INITIAL","EW","01","OT",,"NOT APPLICABLE","06/17/2020","06/17/2020","01/22/2021","06/17/2020","WILLIAM","SENTEZA","PM MECHANICAL GROUP CORP","3472421011","GC","0619413",,,,,,,,,"CONDO/CO-OP","N","UNIT OWNER","LAURA","ENNIS","215","WEST 75 STREET","NEW YORK","NY","10023","6178777244","06/18/2020 00:00:00","3765540","40.780817","-73.980794","6","163","Upper West Side"
"BROOKLYN","3323542","137","CARLTON AVE","321574122","01","NB","N","02044","00001","302","11205","2","YES",,,,"ISSUED","RENEWAL","NB","07",,,"ON-SITE","05/10/2022","05/10/2022","04/03/2023","12/31/2018","JOSEPH","D'ALONZO","COW BAY SPRINKLER CORP","5168838484","GC","0000695",,,,,,,"VITO LOSITO","COW BAY SPRINKLER CORP","CORPORATION","N","137 CARLTON LLC","MICHAEL","LEVY",,,,,,"2128139562","05/11/2022 00:00:00","3905937","40.693595","-73.972994","35","18501","Fort Greene"
"BROOKLYN","3429095","361","BEDFORD AVE","321628850","01","A2","Y","02444","00004","301","11211","2","YES","MX-8",,"SD","ISSUED","RENEWAL","EW","03","SD",,"NOT APPLICABLE","05/10/2022","05/10/2022","05/10/2023","11/13/2017","GORDON","RUGG, JR","DONATO, INC","7187684041","MP","0002211",,,,,,,,,"CORPORATION","N","361 OWNERS LLC","SIMON","DUSHINSKY",,,,,,"7182464762","05/11/2022 00:00:00","3905938","40.711626","-73.963107","34","549","North Side-South Side"
"QUEENS","4624348","58-12","GRANGER STREET","421616905","01","NB","N","01957","00012","404","11368","2","YES",,,,"ISSUED","INITIAL","FO","01","EA",,"USE UNDER 300 CU.YD","05/10/2022","06/08/2022","01/21/2023","06/08/2022","XIANGBO","LI","L&L CONSTRUCTION DEVELOP","7186611388","GC","0612508",,,,,,,"YOUBIN XUE","HONOR CONSULTANT LLC","CORPORATION","N","58-12 LLC","YI YONG","LI",,,,,,"7702988083","06/09/2022 00:00:00","3905926","40.738442","-73.854876","21","43702","Corona"
"BROOKLYN","3398702","291","UNION STREET","321911525","01","A1","Y","00339","07503","306","11231","2","YES",,,,"ISSUED","RENEWAL","AL","03",,,"NOT APPLICABLE","05/10/2022","05/10/2022","04/01/2023","08/05/2019","BRIAN","LONG","LONG & DELOSA CONST GROUP","7184998400","GC","0009090",,,,,,,,,"CONDO/CO-OP","N","291 UNION STREET, LLC","VICTOR","MASI",,,,,,"7186255449","05/11/2022 00:00:00","3905939","40.682554","-73.996420","39","67","Carroll Gardens-Columbia Street-Red Hook"
"MANHATTAN","1030866","250","WEST 77TH STREET","123061104","02","A2","N","01168","00056","107","10024","2",,,,"MH","ISSUED","RENEWAL","EW","07","MH",,,"05/10/2022","05/10/2022","05/01/2023","10/12/2017","JOHN","VENETIS","VEMAGROUP LLC","2122475658","GC","0612969",,,,,,,,,"PARTNERSHIP","N","BELLECLAIRE HOTEL","ANNA","FUENTAS",,,,,,"2124534274","05/11/2022 00:00:00","3905940","40.782656","-73.981270","6","163","Upper West Side"
"BROOKLYN","3323542","137","CARLTON AVE","321574122","01","NB","N","02044","00001","302","11205","2","YES",,,"EQ","ISSUED","RENEWAL","EQ","04","FN",,"ON-SITE","05/10/2022","05/10/2022","05/10/2023","12/31/2018","JOSEPH","D'ALONZO","COW BAY SPRINKLER CORP","5168838484","GC","0000695",,,,,,,,,"CORPORATION","N","137 CARLTON LLC","MICHAEL","LEVY",,,,,,"2128139562","05/11/2022 00:00:00","3905941","40.693595","-73.972994","35","18501","Fort Greene"
"MANHATTAN","1030866","250","WEST 77TH STREET","123706613","01","A2","Y","01168","00056","107","10024","2","YES",,,"OT","ISSUED","RENEWAL","EW","05","OT",,"NOT APPLICABLE","05/10/2022","05/10/2022","05/01/2023","06/21/2019","JOHN","VENETIS","VEMAGROUP LLC","2122475658","GC","0612969",,,,,,,,,"PARTNERSHIP","N","BELLECLAIRE HOTEL","ANNA","CANNATA",,,,,,"2124534274","05/11/2022 00:00:00","3905942","40.782656","-73.981270","6","163","Upper West Side"
"MANHATTAN","1083718","701","7TH AVENUE","122688001","01","A2","Y","01000","00001","105","10036","2",,"MID",,"SD","ISSUED","RENEWAL","EW","07","SD",,"NOT APPLICABLE","05/10/2022","05/10/2022","05/10/2023","05/16/2016","DAVID","ISRAEL","RAEL AUTOMATIC SPR.CO INC","2123021484","FS","0000123",,,,,,,,,"PARTNERSHIP","N","701 SEVENTH PROPERTY OWNER LLC","CRAIG","MURPHY",,,,,,"2126724700","05/11/2022 00:00:00","3905943","40.759293","-73.984543","4","125","Midtown-Midtown South"
"QUEENS","4623425","43-12","166 ST","421756111","01","NB","N","05423","00048","407","11358","1","YES",,,,"ISSUED","RENEWAL","NB","03",,,"ON-SITE","05/10/2022","05/10/2022","04/29/2023","03/31/2021","JIN","LIN","JIN SUN CONSTRUCTION INC","9174171769","GC","0618159",,,,,,,,,"INDIVIDUAL","N","4312 PROPERTY LLC","JOHN","ZHANG",,,,,,"9296668226","05/11/2022 00:00:00","3905944","40.758084","-73.800534","20","1193","East Flushing"
"BROOKLYN","3028202","664","BERGEN STREET","340775977","01","A2","N","01145","00021","308","11238","2",,,,"OT","ISSUED","RENEWAL","EW","02","OT",,"OFF-SITE","05/10/2022","05/10/2022","03/03/2023","05/17/2021","MICHAEL","GOLDBERG","TRULINE CONSTRUCTION SERV","8504916702","GC","0617346",,,,,,,"JASON DELUCIA","ENGEL BURMAN","PARTNERSHIP","N","1612 24TH STREET","JACOB","LEVITA",,,,,,"7184350096","05/11/2022 00:00:00","3905945","40.679178","-73.967094","35","205","Prospect Heights"
"BRONX","2016370","2659","WEBSTER AVENUE","210000997","01","A1",,"03277","00032","207","10458","2",,,,,"ISSUED","RENEWAL","AL","12",,,"NONE","05/10/2022","05/10/2022","04/01/2023","11/14/2007","BERNARDINO","ESPOSITO","C.I. CONTRACTING CORP","9142053333","GC","0018206",,,"1289609",,,,,,"CORPORATION","N","2659 Webster Realty LLC","Ron","Gilbert",,,,,,"7182921800","05/11/2022 00:00:00","3905946","40.863677","-73.888796","15","397","Belmont"
"MANHATTAN","1030866","250","WEST 77TH STREET","123706613","02","A2","Y","01168","00056","107","10024","2",,,,"MH","ISSUED","RENEWAL","EW","05","MH",,,"05/10/2022","05/10/2022","05/01/2023","06/21/2019","JOHN","VENETIS","VEMAGROUP LLC","2122475658","GC","0612969",,,,,,,,,"PARTNERSHIP","N","BELLECLAIRE HOTEL","ANNA","CANNATA",,,,,,"2124534274","05/11/2022 00:00:00","3905947","40.782656","-73.981270","6","163","Upper West Side"
"BROOKLYN","3426503","60","FRONT STREET","340729714","01","A3","Y","00045","00025","302","11201","2","YES",,,"EQ","ISSUED","RENEWAL","EQ","03","OT",,,"05/10/2022","05/10/2022","05/10/2023","06/03/2020","IBRAIM","REDZA","SKYLINE SCAFFOLDING GROUP","7329850013","GC","0601568",,,,,,,,,"CORPORATION","N","FORTIS DUMBO ACQUISITION, LLC","JESSE","LASERSON",,,,,,"7189077163","05/11/2022 00:00:00","3905948","40.702530","-73.990536","33","21","DUMBO-Vinegar Hill-Downtown Brooklyn-Boerum Hill"
"BROOKLYN","3426503","60","FRONT STREET","340730043","01","A3","Y","00045","00025","302","11201","2","YES",,,"EQ","ISSUED","RENEWAL","EQ","03","OT",,,"05/10/2022","05/10/2022","05/10/2023","06/02/2020","IBRAIM","REDZA","SKYLINE SCAFFOLDING GROUP","7329850013","GC","0601568",,,,,,,,,"CORPORATION","N","FORTIS DUMBO ACQUISITION, LLC","JESSE","LASERSON",,,,,,"7189077163","05/11/2022 00:00:00","3905949","40.702530","-73.990536","33","21","DUMBO-Vinegar Hill-Downtown Brooklyn-Boerum Hill"
"QUEENS","4012299","3433","43 STREET","420467355","01","A2","N","00703","00017","401","11101","2","YES",,,"PL","ISSUED","RENEWAL","PL","08",,,"NOT APPLICABLE","08/08/2022","08/08/2022","08/08/2023","09/10/2013","ANTONIOS","ELENIS","MASTER PLBG AND HTG INC","7185457616","MP","0001972",,,,,,,,,"NYC AGENCY","N","SAHAD CORP","GHASSAN","AZZOUNI",,,,,,"7185447878","08/09/2022 00:00:00","3918458","40.754586","-73.919243","26","159","Astoria"
"QUEENS","4173167","66-26","MARATHON PKWY","440651803","01","A1","N","08379","00122","411","11362","1","YES",,,,"ISSUED","RENEWAL","AL","02",,,"NOT APPLICABLE","05/10/2022","05/10/2022","04/29/2023","06/07/2021","JIN","LIN","JIN SUN CONSTRUCTION INC","9174171769","GC","0618159",,,,,,,"XUFENG YU",,"INDIVIDUAL","N","N/A","FENG","LIN",,,,,,"9293784403","05/11/2022 00:00:00","3905951","40.753154","-73.726705","23","152901","Douglas Manor-Douglaston-Little Neck"
"BRONX","2075402","3421","COUNTRY CLUB ROAD","220516118","01","A1","N","05409","00424","210","10465","1","YES",,,"EQ","ISSUED","RENEWAL","EQ","07","FN",,"NOT APPLICABLE","05/10/2022","05/10/2022","05/10/2023","11/29/2017","JOHN","MALABRE","JCT DEVELOPMENT NY INC","8138301034","GC","0606972",,,,,,,,,"INDIVIDUAL","N","SELF","COSMO","MONTEMURRO",,,,,,"9145303057","05/11/2022 00:00:00","3905952","40.839666","-73.815547","13","27402","Pelham Bay-Country Club-City Island"
"BRONX","2124434","1","BOWNE STREET","220340842","01","NB","N","05634","00033","210","10464","2",,"CD",,,"ISSUED","RENEWAL","FO","08",,,"USE UNDER 300 CU.YD","05/10/2022","05/10/2022","04/01/2023","04/14/2016","BERNARDINO","ESPOSITO","C.I. CONTRACTING CORP","9142053333","GC","0018206",,,"1289609",,,,"ANTHONY DURANTE",,"CORPORATION","N","D & D BOWNE ST. REALTY CORP.","AIMEE","BREEN",,,,,,"7188851940","05/11/2022 00:00:00","3905953",,,,,
"MANHATTAN","1082118","129","3 AVENUE","140893031","01","A2","Y","00896","00001","106","10003","2","YES",,,"OT","ISSUED","RENEWAL","EW","02","OT",,"NOT APPLICABLE","05/10/2022","05/10/2022","09/12/2022","06/13/2020","ALEXANDER","FORKOSH","FORKOSH CONSTRUCTION CO","2122193800","GC","0003152",,,,,,,,,"PARTNERSHIP","N","CORAL CRYSTAL LLC","CHRIS","ALCAMO",,,,,,"2122193800","05/11/2022 00:00:00","3905954","40.733487","-73.987025","2","48","Gramercy"
"MANHATTAN","1030866","250","WEST   77 STREET","102715279","01","A1",,"01168","00056","107","10024","2","YES",,,,"ISSUED","RENEWAL","AL","15",,,"NONE","05/10/2022","05/10/2022","05/01/2023","06/06/2002","JOHN","VENETIS","VEMAGROUP LLC","2122475658","GC","0612969",,,,,,,,,"PARTNERSHIP","N","BELLECLAIRE HOTEL","SIDNEY","ZIMMER",,,,,,"2123627700","05/11/2022 00:00:00","3905955","40.782656","-73.981270","6","163","Upper West Side"
"BRONX","2124434","1","BOWNE STREET","220340842","01","NB","N","05634","00033","210","10464","2",,"CD",,"EQ","ISSUED","RENEWAL","EQ","07","FN",,"USE UNDER 300 CU.YD","05/10/2022","05/10/2022","05/10/2023","03/31/2016","BERNARDINO","ESPOSITO","C.I. CONTRACTING CORP","9142053333","GC","0018206",,,"1289609",,,,,,"CORPORATION","N","D & D BOWNE ST. REALTY CORP.","AIMEE","BREEN",,,,,,"7188851940","05/11/2022 00:00:00","3905956",,,,,
"MANHATTAN","1025180","318","WEST 51 STREET","121161615","01","A2","N","01041","00044","104","10019","2","YES","CL",,"OT","ISSUED","RENEWAL","EW","14","OT",,"NOT APPLICABLE","05/10/2022","05/10/2022","05/01/2023","08/10/2012","JOHN","VENETIS","VEMAGROUP LLC","2122475658","GC","0612969",,,,,,,,,"PARTNERSHIP","N","WASHINGTON JEFFERSON HOTEL LLC","LISA","COSTA",,,,,,"2124534274","05/11/2022 00:00:00","3905957","40.763249","-73.986467","3","133","Clinton"
"BROOKLYN","3063703","29","CLAY STREET","300643793","01","A2",,"02482","00053","301","11222","2",,,,"PL","ISSUED","RENEWAL","PL","02",,,"NONE","05/10/2022","05/10/2022","05/10/2023","06/23/1997","ZYGMUNT","MOSCICKI","PACE PLUMBING CORP","9172029429","MP","0002277",,,,,,,,,"PARTNERSHIP","N","NICOLE ASSOC.INC.LLC","ANDREW","KOREN",,,,,,"7183896100","05/11/2022 00:00:00","3905958","40.736423","-73.957053","33","563","Greenpoint"
"BROOKLYN","3064943","96","FRANKLIN STREET","321495869","01","A1","N","02569","00002","301","11222","1","YES",,,,"ISSUED","RENEWAL","AL","05",,,"NOT APPLICABLE","05/10/2022","05/10/2022","04/29/2023","11/23/2018","ANDRES","CORTES","AGENCIE GROUP LLC NY","2122030265","GC","0620187",,,,,,,"JESSE CHEUNG","KING KONG GC INC","PARTNERSHIP","N","GREEN 96 LLC","HARRY","OTTERMAN",,,,,,"2122030265","05/11/2022 00:00:00","3905959","40.727922","-73.957260","33","561","Greenpoint"
"MANHATTAN","1090180","217","WEST 57TH STREET","140178091","01","A2","N","01029","00019","105","10019","2","YES","MID",,"SD","ISSUED","RENEWAL","EW","09","SD",,"NOT APPLICABLE","05/10/2022","05/10/2022","05/10/2023","06/26/2014","DAVID","ISRAEL","RAEL AUTOMATIC SPR.CO INC","2123021484","FS","0000123",,,,,,,,,"PARTNERSHIP","N","EXTELL DEVELOPMENT COMPANY","DAVID","ROTHSTEIN",,,,,,"2127126000","05/11/2022 00:00:00","3905960","40.765930","-73.980979","4","137","Midtown-Midtown South"
"MANHATTAN","1090526","520","PARK AVENUE","123720937","01","A2","Y","01375","07504","108","10022","2","YES",,,"SP","ISSUED","RENEWAL","EW","04","SP",,"NOT APPLICABLE","05/10/2022","05/10/2022","05/10/2023","05/22/2019","DAVID","ISRAEL","RAEL AUTOMATIC SPR.CO INC","2123021484","FS","0000123",,,,,,,,,"CONDO/CO-OP","N","PH-56 HOLDINGS, LLC.","COLBY","WILLIAM",,,,,,"7023825222","05/11/2022 00:00:00","3905961","40.763943","-73.970041","4","11401","Upper East Side-Carnegie Hill"
"MANHATTAN","1025180","318","WEST 51 STREET","121161615","02","A2","N","01041","00044","104","10019","2",,,,"MH","ISSUED","RENEWAL","EW","13","MH",,,"05/10/2022","05/10/2022","05/01/2023","08/10/2012","JOHN","VENETIS","VEMAGROUP LLC","2122475658","GC","0612969",,,,,,,,,"PARTNERSHIP","N","WASHINGTON JEFFERSON HOTEL LLC","LISA","COSTA",,,,,,"2124534274","05/11/2022 00:00:00","3905962","40.763249","-73.986467","3","133","Clinton"
"MANHATTAN","1015275","1411","BROADWAY","123597517","01","A2","Y","00815","00001","105","10018","2",,"MID",,"SP","ISSUED","RENEWAL","EW","04","SP",,"NOT APPLICABLE","05/10/2022","05/10/2022","05/10/2023","05/02/2019","DAVID","ISRAEL","RAEL AUTOMATIC SPR.CO INC","2123021484","FS","0000123",,,,,,,,,"CORPORATION","N","1411 IC-SIC PROP LLC C/O CBRE","FANCI","WEISSMAN",,,,,,"2128407220","05/11/2022 00:00:00","3905963","40.753716","-73.987068","3","113","Midtown-Midtown South"
"BROOKLYN","3058246","141","WILLOUGHBY STREET","340682210","01","A2","N","02060","00001","302","11201","2",,"DB",,"SD","ISSUED","RENEWAL","EW","02","SD",,"USE UNDER 300 CU.YD","05/10/2022","05/10/2022","05/10/2023","05/12/2021","DAVID","ISRAEL","RAEL AUTOMATIC SPR.CO INC","2123021484","FS","0000123",,,,,,,,,"CORPORATION","N","SAVANNA","GREGORY","JAFFE",,,,,,"2128218694","05/11/2022 00:00:00","3905964","40.692085","-73.983135","33","15","DUMBO-Vinegar Hill-Downtown Brooklyn-Boerum Hill"
"BROOKLYN","3058246","141","WILLOUGHBY STREET","340682210","01","A2","N","02060","00001","302","11201","2",,"DB",,"SP","ISSUED","RENEWAL","EW","02","SP",,"USE UNDER 300 CU.YD","05/10/2022","05/10/2022","05/10/2023","05/12/2021","DAVID","ISRAEL","RAEL AUTOMATIC SPR.CO INC","2123021484","FS","0000123",,,,,,,,,"CORPORATION","N","SAVANNA","GREGORY","JAFFE",,,,,,"2128218694","05/11/2022 00:00:00","3905965","40.692085","-73.983135","33","15","DUMBO-Vinegar Hill-Downtown Brooklyn-Boerum Hill"
"BROOKLYN","3325917","235","ADAMS STREET","321967163","01","A2","N","00086","00011","302","11201","2","YES",,,"OT","ISSUED","RENEWAL","EW","02","OT",,"NOT APPLICABLE","05/10/2022","05/10/2022","05/04/2023","03/18/2022","SALVATORE","FARACI","CESAR & SON CONSTRUCTION","7183212552","GC","0606668",,,,,,,,,"CORPORATION","N","CONCORD VILLAGE OWNERS INC.","BARRY","NEWMARK",,,,,,"7186253288","05/11/2022 00:00:00","3905966","40.696502","-73.988730","33","13","DUMBO-Vinegar Hill-Downtown Brooklyn-Boerum Hill"
"BROOKLYN","3043763","282","VAN BUREN STREET","340841511","01","A2","N","01615","00016","303","11221","1","YES",,,"OT","ISSUED","INITIAL","EW","01","OT",,"NOT APPLICABLE","05/10/2022","05/10/2022","06/12/2022","05/10/2022","THOMAS","LUDWIG","BROOKLYN SOLARWORKS LLC","9739087410","GC","0614701",,,,,,,,,"INDIVIDUAL","N","N/A","GORDON","PRICE",,,,,,"3474747144","05/11/2022 00:00:00","3905967","40.690943","-73.935489","36","291","Stuyvesant Heights"
"BROOKLYN","3429095","361","BEDFORD AVE","321193196","03","NB","N","02444","00004","301","11211","2",,,,"PL","ISSUED","RENEWAL","PL","02",,,,"05/10/2022","05/10/2022","05/10/2023","02/05/2021","GORDON","RUGG, JR","DONATO, INC","7187684041","MP","0002211",,,,,,,,,"CORPORATION","N","361 BEDFORD AVENUE ASSOCIATES","DAVID","DUVOISIN",,,,,,"7279461172","05/11/2022 00:00:00","3905968","40.711626","-73.963107","34","549","North Side-South Side"
"BRONX","2017549","2769","CRESTON AVENUE","220699493","01","DM","N","03318","00139","207","10468","1",,,,,"ISSUED","INITIAL","DM","01",,,"USE UNDER 300 CU.YD","05/10/2022","05/10/2022","09/01/2022","05/10/2022","STEVE","ZERVOUDIS","GALAXY GENERAL CONTRACTIN","7186017000","GC","0601584",,,,,,,"PHILIP ANTONAKOS","GALAXY GENERAL CONTRACTIO","INDIVIDUAL","N","RAJIVE MARET","RAJIVE","MARET",,,,,,"9177050410","05/11/2022 00:00:00","3905969","40.869385","-73.893248","14","40303","Van Cortlandt Village"
"QUEENS","4215630","94-20","GUY R BREWER BOULEVARD","440593831","01","A2","Y","10104","00043","412","11433","2",,,,"OT","ISSUED","RENEWAL","EW","03","OT",,"NOT APPLICABLE","08/08/2022","08/08/2022","06/12/2023","04/28/2022","SHRI","ATTRI","ATTRI ENTERPRISES INC","7184867395","GC","0000383",,,,,,,,,"OTHER GOV'T AGENCY","N","DASNY","MICHAEL","STABULAS",,,,,,"2122735090","08/09/2022 00:00:00","3918459","40.702532","-73.795578","27","246","Jamaica"
"QUEENS","4602514","1815","LINDEN STREET","420977759","01","NB","N","03439","00052","405","11385","2","YES",,,,"ISSUED","RENEWAL","NB","11",,,"USE UNDER 300 CU.YD","05/10/2022","05/10/2022","05/31/2022","08/11/2016","MICHAEL","PANAGIOTOPOULOS","FG-PH CORP","7187844424","GC","0015401",,,,,,,"MICHAEL PANAGIOTOPOULOS","FG-PH CORP.","PARTNERSHIP","N","1815 LINDEN LLC","TADEUSZ","WAWRZAK",,,,,,"7189371950","05/11/2022 00:00:00","3905971","40.704015","-73.908852","34","547","Ridgewood"
"BROOKLYN","3059294","741","FULTON STREET","340843804","01","A2","N","02116","00005","302","11217","1","YES",,,"OT","ISSUED","INITIAL","EW","01","OT",,"NOT APPLICABLE","05/10/2022","05/10/2022","06/12/2022","05/10/2022","THOMAS","LUDWIG","BROOKLYN SOLARWORKS LLC","9739087410","GC","0614701",,,,,,,,,"PARTNERSHIP","N","741 FULTON STREET LLC","LIN","TARLIEN",,,,,,"3474747144","05/11/2022 00:00:00","3905972","40.686528","-73.974944","35","35","Fort Greene"
"MANHATTAN","1025180","318","WEST 51 STREET","120944988","01","A2","N","01041","00044","104","10019","2","YES","CL",,"OT","ISSUED","RENEWAL","EW","14","OT",,"NOT APPLICABLE","05/10/2022","05/10/2022","05/01/2023","01/20/2012","JOHN","VENETIS","VEMAGROUP LLC","2122475658","GC","0612969",,,,,,,,,"PARTNERSHIP","N","WASHINGTON JEFFERSON HOTEL LLC","LISA","COSTA",,,,,,"2124534274","05/11/2022 00:00:00","3905973","40.763249","-73.986467","3","133","Clinton"
"MANHATTAN","1025180","318","W 51","122148425","01","A2","N","01041","00044","104","10019","2","YES","CL",,"OT","ISSUED","RENEWAL","EW","10","OT",,"NOT APPLICABLE","05/10/2022","05/10/2022","05/01/2023","05/05/2015","JOHN","VENETIS","VEMAGROUP LLC","2122475658","GC","0612969",,,,,,,,,"PARTNERSHIP","N","WASHINGTON JEFFERSON HOTEL LLC","ANNA","FUENTES",,,,,,"2124534274","05/11/2022 00:00:00","3905974","40.763249","-73.986467","3","133","Clinton"
"BROOKLYN","3123064","1224","39TH STREET","340685048","01","A2","N","05293","00013","312","11218","2","YES",,,"PL","ISSUED","INITIAL","PL","01",,,"NOT APPLICABLE","05/10/2022","05/10/2022","05/10/2023","05/10/2022","CRESCENZO","VENEZIANO","ALL PRO PLBG & HTG INC","7183860393","MP","0001444",,,,,,,,,"PARTNERSHIP","N","ORTEGRO REALTY 1224 LLC","ZVI","ORTNER",,,,,,"3475857739","05/11/2022 00:00:00","3905975","40.641521","-73.987792","39","230","Borough Park"
"STATEN ISLAND","5013250","44","VICTORY BLVD","520381097","01","NB","N","00498","00040","501","10301","2",,"SG",,,"ISSUED","RENEWAL","FO","05",,,"USE UNDER 300 CU.YD","05/10/2022","05/10/2022","05/02/2023","08/12/2020","KIERAN","KEAVENEY","ECI CONTRACTING LLC","9142378244","GC","0610806",,,,,,,"RALPH CASTAGNA",,"CORPORATION","N","FREEHOLD S.L. LIMITED PARTNERSHI","ROEE","SHUA-HAIM",,,,,,"2018556204","05/11/2022 00:00:00","3905976","40.637991","-74.077614","49","21","Stapleton-Rosebank"
"MANHATTAN","1025180","318","W 51","122148425","02","A2","N","01041","00044","104","10019","2",,,,"OT","ISSUED","RENEWAL","EW","10","OT",,,"05/10/2022","05/10/2022","05/01/2023","05/05/2015","JOHN","VENETIS","VEMAGROUP LLC","2122475658","GC","0612969",,,,,,,,,"PARTNERSHIP","N","WASHINGTON JEFFERSON HOTEL LLC","ANNA","FUENTES",,,,,,"2124534274","05/11/2022 00:00:00","3905977","40.763249","-73.986467","3","133","Clinton"
"STATEN ISLAND","5013250","44","VICTORY BLVD","520399621","01","A3","N","00498","00040","501","10301","2",,"SG",,"OT","ISSUED","RENEWAL","AL","05",,,,"05/10/2022","05/10/2022","05/02/2023","08/13/2020","KIERAN","KEAVENEY","ECI CONTRACTING LLC","9142378244","GC","0610806",,,,,,,"RALPH CASTAGNA",,"PARTNERSHIP","N","FREEHOLD SL LIMITED PARTNERSHIP","ROEE","SHUA-HAIM",,,,,,"2018556204","05/11/2022 00:00:00","3905978","40.637991","-74.077614","49","21","Stapleton-Rosebank"
"QUEENS","4014555","22-60","46TH STREET","421133026","01","NB","N","00769","00025","401","11105","2","YES",,,,"ISSUED","INITIAL","NB","01",,,"ON-SITE","08/08/2022","08/08/2022","08/08/2023","08/08/2022","GEORGE","POULON","MEGA CONTRACTING GP LLC","7189326342","GC","0603805",,,,,,,"PEDRO FERNANDEZ","MEGA CONTRACTING","CORPORATION","N","MD 45 DEVELOPERS LLC","HERCULES","ARGYRIOU",,,,,,"7189326342","08/09/2022 00:00:00","3918460","40.769275","-73.903738","22","137","Steinway"
"BROOKLYN","3097160","685","ESSEX STREET","340843500","01","A2","N","04316","00068","305","11208","1","YES",,,"OT","ISSUED","INITIAL","EW","01","OT",,"NOT APPLICABLE","05/10/2022","05/10/2022","12/18/2022","05/10/2022","ALBERT","ROJAS","CENTURION SOLAR ENERGY","2122039310","GC","0615482",,,,,,,,,"INDIVIDUAL","N","N/A","ANNA","PETERS",,,,,,"9175862177","05/11/2022 00:00:00","3905980","40.666752","-73.879482","42","1120","East New York"
"STATEN ISLAND","5013250","44","VICTORY BLVD","520381097","01","NB","N","00498","00040","501","10301","2",,"SG",,,"ISSUED","RENEWAL","NB","02",,,"USE UNDER 300 CU.YD","05/10/2022","05/10/2022","05/02/2023","05/27/2021","KIERAN","KEAVENEY","ECI CONTRACTING LLC","9142378244","GC","0610806",,,,,,,"RALPH CASTAGNA",,"CORPORATION","N","FREEHOLD S.L. LIMITED PARTNERSHI","ROEE","SHUA-HAIM",,,,,,"2018556204","05/11/2022 00:00:00","3905983","40.637991","-74.077614","49","21","Stapleton-Rosebank"
"MANHATTAN","1011751","271","WEST 10TH STREET","121333912","01","A1","N","00631","00026","102","10014","1","YES",,,,"ISSUED","RENEWAL","AL","07",,,"NOT APPLICABLE","05/10/2022","05/10/2022","05/02/2023","08/13/2018","KIERAN","KEAVENEY","ECI CONTRACTING LLC","9142378244","GC","0610806",,,,,,,"JOHN GORMALLY",,"PARTNERSHIP","N","271 WEST 10TH STREET LLC","GARY","DEBODE",,,,,,"9082730371","05/11/2022 00:00:00","3905985","40.733537","-74.007736","3","75","West Village"
"MANHATTAN","1051377","25","EAST END AVENUE","123690791","01","A2","N","01589","00019","108","10028","2","YES",,,"OT","ISSUED","RENEWAL","EW","05","OT",,"NOT APPLICABLE","05/10/2022","05/10/2022","01/01/2023","11/13/2019","ROMAN","JEMIELITY","INTER RENOVATION INC","7183265606","GC","0612190",,,,"ISAAC","RIVERA",,,,"CORPORATION","N","25 EAST END AVENUE CORPORATION","JOSEPH","SPONHOLZ",,,,,,"2125350049","05/11/2022 00:00:00","3905987","40.771318","-73.947394","5","136","Yorkville"
"MANHATTAN","1016895","4","EAST 28TH STREET","121169412","01","A2","N","00857","00075","105","10016","2",,,,"MH","ISSUED","RENEWAL","EW","12","MH",,"NOT APPLICABLE","05/10/2022","05/10/2022","05/01/2023","07/03/2013","JOHN","VENETIS","VEMAGROUP LLC","2122475658","GC","0612969",,,,,,,,,"PARTNERSHIP","N","LATHAM HOTEL","SHIMMINE","HORN",,,,,,"2124534274","05/11/2022 00:00:00","3905988","40.744524","-73.986950","2","56","Hudson Yards-Chelsea-Flatiron-Union Square"
"MANHATTAN","1011751","271","WEST 10TH STREET","121333912","01","A1","N","00631","00026","102","10014","1","YES",,,"EQ","ISSUED","RENEWAL","EQ","05","FN",,"NOT APPLICABLE","05/10/2022","05/10/2022","05/10/2023","08/10/2018","KIERAN","KEAVENEY","ECI CONTRACTING LLC","9142378244","GC","0610806",,,,,,,,,"PARTNERSHIP","N","271 WEST 10TH STREET LLC","GARY","DEBODE",,,,,,"9082730371","05/11/2022 00:00:00","3905989","40.733537","-74.007736","3","75","West Village"
"BRONX","2833872","1224 GAR","MANOR AVENUE","220741543","01","DM","N","03776","00017","209","10472","1",,,,,"IN PROCESS","INITIAL","DM","01",,,"ON-SITE","05/10/2022",,,"05/10/2022",,,,,,,,,,,,,,,"CORPORATION","N","J&ZFOODMARTANDSUPERMARKETINC","MOBARAK","HOSSAIN",,,,,,"3477407490","05/11/2022 00:00:00","3905990","40.829751","-73.876571","18","54","West Farms-Bronx River"
"STATEN ISLAND","5047348","176","BEVERLY ROAD","520385360","01","A1","N","03228","00083","502","10305","1","YES",,,,"ISSUED","RENEWAL","AL","04",,,"ON-SITE","05/10/2022","05/10/2022","04/02/2023","01/17/2020","ASIR","MIMIDINOVSKI","ZAIM CONTRACTOR CORP","7189826181","GC","0030149",,,,,,,"ASIR MIMIDINOVSKI","ZAIM CONTRACTOR CORP","INDIVIDUAL","N","ISUF LEKPERIC","ISUF","LEKPERIC",,,,,,"7186000108","05/11/2022 00:00:00","3905991","40.600625","-74.078795","50","64","Grasmere-Arrochar-Ft. Wadsworth"
"MANHATTAN","1016895","4","EAST 28TH STREET","121169412","02","A2","N","00857","00075","105","10016","2",,,,"OT","ISSUED","RENEWAL","EW","12","OT",,,"05/10/2022","05/10/2022","05/01/2023","07/03/2013","JOHN","VENETIS","VEMAGROUP LLC","2122475658","GC","0612969",,,,,,,,,"PARTNERSHIP","N","LATHAM HOTEL","SHIMMINE","HORN",,,,,,"2124534274","05/11/2022 00:00:00","3905992","40.744524","-73.986950","2","56","Hudson Yards-Chelsea-Flatiron-Union Square"
"MANHATTAN","1059409","443","WEST 135TH STREET","103649777","04","A2","Y","01957","00078","109","10031","2",,,,"PL","ISSUED","RENEWAL","PL","05",,,,"05/10/2022","05/10/2022","05/10/2023","04/13/2018","THOMAS","BELLINI","VARSITY PLBG AND HTG INC","7183585400","MP","0001226",,,,,,,,,"OTHER GOV'T AGENCY","N","NYCSCA","MARIA","GOMEZ",,,,,,"7184728526","05/11/2022 00:00:00","3905993","40.818188","-73.950356","9","21703","Manhattanville"
"MANHATTAN","1076286","44","EAST   67 STREET","104714560","01","A2",,"01381","07503","108","10065","2",,"LH1A",,"PL","ISSUED","RENEWAL","PL","02",,,"NONE","05/10/2022","05/10/2022","05/10/2023","06/12/2007","SPIRO","DOUDOUNIS","FIVE STAR P AND H CO, INC","7182242705","MP","0001534",,,,,,,,,"INDIVIDUAL","N","44 East 67th Street Condominium","SARIAN","ANDREW",,,,,,"6462444100","05/11/2022 00:00:00","3905994","40.768391","-73.967296","4","122","Upper East Side-Carnegie Hill"
"QUEENS","4456705","22-61","45TH STREET","421133035","01","NB","N","00769","00042","401","11105","2","YES",,,,"ISSUED","INITIAL","NB","01",,,"ON-SITE","08/08/2022","08/08/2022","08/08/2023","08/08/2022","GEORGE","POULON","MEGA CONTRACTING GP LLC","7189326342","GC","0603805",,,,,,,"PEDRO FERNANDEZ","MEGA CONTRACTING","CORPORATION","N","MD 45 DEVELOPERS LLC","HERCULES","ARGYRIOU",,,,,,"7189326342","08/09/2022 00:00:00","3918461","40.769786","-73.904419","22","137","Steinway"
"MANHATTAN","1016895","4","EAST 28TH STREET","123198271","01","A2","N","00857","00075","105","10016","2",,,,"OT","ISSUED","RENEWAL","EW","06","OT",,"NOT APPLICABLE","05/10/2022","05/10/2022","05/01/2023","05/31/2018","JOHN","VENETIS","VEMAGROUP LLC","2122475658","GC","0612969",,,,,,,,,"PARTNERSHIP","N","LATHAM HOTEL","SHIMMINE","HORN",,,,,,"2124534274","05/11/2022 00:00:00","3905997","40.744524","-73.986950","2","56","Hudson Yards-Chelsea-Flatiron-Union Square"
"BRONX","2014683","2621","GRAND AVENUE","220739850","01","DM","N","03215","00044","207","10468","1",,,,,"ISSUED","INITIAL","DM","01",,,"ON-SITE","05/10/2022","07/19/2022","09/01/2022","07/19/2022","RASULEV","AZAMAT","FRSS GROUP CORP","6316201144","GC","0621052",,,,,,,,,"INDIVIDUAL","N","PARAMOUNT HOMES MANAGEMENT INC","FRANC","GJINI",,,,,,"2128516911","07/20/2022 00:00:00","3905986","40.867135","-73.900002","14","265","Kingsbridge Heights"
"MANHATTAN","1017030","14","EAST 33 STREET","140923099","01","A2","Y","00862","07502","105","10016","2",,,,"OT","ISSUED","RENEWAL","EW","03","OT",,"NOT APPLICABLE","05/10/2022","05/10/2022","11/20/2022","07/15/2020","DAEJIN","HWANG","MXP LLC","2124081657","GC","0622612",,,,,,,,,"CONDO/CO-OP","N","N/A","CHEOLSOON","JANG",,,,,,"6463222139","05/11/2022 00:00:00","3905998","40.747428","-73.984250","4","74","Midtown-Midtown South"
"BROOKLYN","3337039","455","FOUNTAIN AVENUE","340588518","01","A2","N","04292","00061","305","11208","2","YES",,,"PL","ISSUED","INITIAL","PL","01",,,"NOT APPLICABLE","05/10/2022","05/10/2022","05/10/2023","05/10/2022","CHARAN","SINGH","AJIT ONE MECH&GEN'L CONTR","7188059957","MP","0001906",,,,,,,,,"NYCHA/HHC","N","NEW YORK CITY HOUSING AUTHORITY","SCOTT","GROOM",,,,,,"2123063000","05/11/2022 00:00:00","3905999","40.668601","-73.873235","42","1210","East New York"
"BROOKLYN","3093864","52","FORBELL STREET","340839702","01","A2","N","04178","00027","305","11208","1","YES",,,"OT","ISSUED","INITIAL","EW","01","OT",,"NOT APPLICABLE","05/10/2022","05/10/2022","12/18/2022","05/10/2022","ALBERT","ROJAS","CENTURION SOLAR ENERGY","2122039310","GC","0615482",,,,,,,,,"INDIVIDUAL","N","N/A","HECTOR","GONZALEZ",,,,,,"9172991683","05/11/2022 00:00:00","3906000","40.681936","-73.864957","37","1186","Cypress Hills-City Line"
"MANHATTAN","1016895","4","EAST 28TH STREET","122899435","01","A2","N","00857","00075","105","10016","2",,,,"OT","ISSUED","RENEWAL","EW","07","OT",,"NOT APPLICABLE","05/10/2022","05/10/2022","05/01/2023","02/14/2017","JOHN","VENETIS","VEMAGROUP LLC","2122475658","GC","0612969",,,,,,,,,"PARTNERSHIP","N","LATHAM HOTEL","SHIMMINE","HORN",,,,,,"2124534274","05/11/2022 00:00:00","3906001","40.744524","-73.986950","2","56","Hudson Yards-Chelsea-Flatiron-Union Square"
"BROOKLYN","3337046","2525","LINDEN BLVD","340589214","01","A2","N","04292","00061","305","11208","2","YES",,,"PL","ISSUED","INITIAL","PL","01",,,"NOT APPLICABLE","05/10/2022","05/10/2022","05/10/2023","05/10/2022","CHARAN","SINGH","AJIT ONE MECH&GEN'L CONTR","7188059957","MP","0001906",,,,,,,,,"NYCHA/HHC","N","NEW YORK CITY HOUSING AUTHORITY","SCOTT","GROOM",,,,,,"2123063000","05/11/2022 00:00:00","3906002","40.667404","-73.870801","42","1210","East New York"
"BROOKLYN","3326821","6302","AVENUE U","302582104","01","A2","Y","08464","00001","318","11234","2",,,,"PL","ISSUED","RENEWAL","PL","05",,,"NOT APPLICABLE","05/10/2022","05/10/2022","05/10/2023","06/30/2018","THOMAS","BELLINI","VARSITY PLBG AND HTG INC","7183585400","MP","0001226",,,,,,,,,"OTHER GOV'T AGENCY","N","NYC SCHOOL CONST AUTHORITY","STANLEY","DAHIR",,,,,,"7184728740","05/11/2022 00:00:00","3906003","40.615998","-73.912989","46","698","Georgetown-Marine Park-Bergen Beach-Mill Basin"
"MANHATTAN","1056607","924","WEST END AVENUE","123504671","01","A2","N","01877","00001","107","10025","2","YES",,,"OT","ISSUED","RENEWAL","EW","07","OT",,"NOT APPLICABLE","05/10/2022","05/10/2022","01/01/2023","01/22/2019","ROMAN","JEMIELITY","INTER RENOVATION INC","7183265606","GC","0612190",,,,,,,,,"CORPORATION","N","924 WEST END AVENUE CORP.","BURTON","WALLACK",,,,,,"2127533381","05/11/2022 00:00:00","3906004","40.800969","-73.968815","6","191","Upper West Side"
"MANHATTAN","1016895","4","EAST 28TH STREET","120492911","01","A2","Y","00857","00075","105","10016","2",,,,"OT","ISSUED","RENEWAL","EW","15","OT",,"NOT APPLICABLE","05/10/2022","05/10/2022","05/01/2023","10/08/2010","JOHN","VENETIS","VEMAGROUP LLC","2122475658","GC","0612969",,,,,,,,,"PARTNERSHIP","N","LATHAM HOTEL","SHIMMINE","HORN",,,,,,"2124534274","05/11/2022 00:00:00","3906005","40.744524","-73.986950","2","56","Hudson Yards-Chelsea-Flatiron-Union Square"
"MANHATTAN","1016895","4","EAST 28TH STREET","120492902","01","A2","Y","00857","00075","105","10016","2",,,,"OT","ISSUED","RENEWAL","EW","15","OT",,"NOT APPLICABLE","05/10/2022","05/10/2022","05/01/2023","10/14/2010","JOHN","VENETIS","VEMAGROUP LLC","2122475658","GC","0612969",,,,,,,,,"PARTNERSHIP","N","LATHAM HOTEL","SHIMMINE","HORN",,,,,,"2124534274","05/11/2022 00:00:00","3906007","40.744524","-73.986950","2","56","Hudson Yards-Chelsea-Flatiron-Union Square"
"BROOKLYN","3047668","339A","BAINBRIDGE STREET","340842486","01","A2","N","01683","00056","303","11233","1","YES",,,"OT","ISSUED","INITIAL","EW","01","OT",,"NOT APPLICABLE","05/10/2022","05/10/2022","12/18/2022","05/10/2022","ALBERT","ROJAS","CENTURION SOLAR ENERGY","2122039310","GC","0615482",,,,,,,,,"INDIVIDUAL","N","N/A","MARVA","MILLER",,,,,,"7188098986","05/11/2022 00:00:00","3906008","40.681886","-73.923056","41","381","Crown Heights North"
"BROOKLYN","3032216","179","ROGERS AVENUE","340839533","01","A2","N","01254","00005","308","11216","1","YES",,,"OT","ISSUED","INITIAL","EW","01","OT",,"NOT APPLICABLE","05/10/2022","05/10/2022","12/18/2022","05/10/2022","ALBERT","ROJAS","CENTURION SOLAR ENERGY","2122039310","GC","0615482",,,,,,,,,"INDIVIDUAL","N","N/A","VERNA","RICHARDS",,,,,,"7187352054","05/11/2022 00:00:00","3906009","40.671238","-73.953144","35","31702","Crown Heights North"
"MANHATTAN","1016895","4","EAST 28TH STREET","120906822","01","A2","N","00857","00075","105","10016","2",,,,"OT","ISSUED","RENEWAL","EW","12","OT",,"NOT APPLICABLE","05/10/2022","05/10/2022","05/01/2023","04/19/2013","JOHN","VENETIS","VEMAGROUP LLC","2122475658","GC","0612969",,,,,,,,,"PARTNERSHIP","N","NEW LATHAM HOTEL CORP","SHIMMIE","HORN",,,,,,"2124534005","05/11/2022 00:00:00","3906010","40.744524","-73.986950","2","56","Hudson Yards-Chelsea-Flatiron-Union Square"
"QUEENS","4052235","69-10","108TH STREET","421960774","01","A2","Y","02212","00014","406","11375","2","YES",,,"OT","ISSUED","RENEWAL","EW","03","OT",,"NOT APPLICABLE","05/10/2022","05/10/2022","05/14/2023","10/26/2020","MUHAMMAD","ZUBAIR","AMERICAN BUILDERS & CONTR","9175931183","GC","0614341",,,,,,,,,"PARTNERSHIP","N","JOHN B. LOVETT & ASSOCIATES LTD","KEN","LOVETT",,,,,,"7184459500","05/11/2022 00:00:00","3906011","40.724684","-73.845370","29","739","Forest Hills"
"BROOKLYN","3029686","883","CLASSON AVENUE","302572295","02","A2","Y","01187","00001","309","11225","2",,,,"PL","ISSUED","RENEWAL","PL","06",,,,"05/10/2022","05/10/2022","05/10/2023","07/18/2017","THOMAS","BELLINI","VARSITY PLBG AND HTG INC","7183585400","MP","0001226",,,,,,,,,"NYC AGENCY","N","NYC SCHOOL CONSTR. AUTHORITY","JAMES","ELBERFELD",,,,,,"7185725318","05/11/2022 00:00:00","3906012","40.670349","-73.961695","35","213","Crown Heights South"
"BROOKLYN","3033768","1456","PRESIDENT STREET","321569646","01","A2","N","01286","00131","309","11213","1","YES",,,"OT","ISSUED","RENEWAL","EW","07","OT",,"NOT APPLICABLE","05/10/2022","05/10/2022","04/01/2023","07/24/2017","SHOLOM","ROGATSKY","ROGO BUILDERS INC","7183959015","GC","0607850",,,,,,,,,"INDIVIDUAL","N","NA","PERETZ","CHEIN",,,,,,"3474100291","05/11/2022 00:00:00","3906013","40.667524","-73.940728","35","335","Crown Heights South"
"MANHATTAN","1089340","551","MAIN STREET","140837735","01","A2","Y","01373","07505","108","10044","2","YES",,,"OT","ISSUED","RENEWAL","EW","02","OT",,"NOT APPLICABLE","05/10/2022","05/10/2022","12/16/2022","03/12/2021","SERGEY","FATAKHOV","SF CONSTRUCTION EXPERTS","9177427310","GC","0613514",,,,,,,,,"CORPORATION","N","ISLAND HOUSE TENANTS CORP","AMRAH","CARDOSO",,,,,,"2127553012","05/11/2022 00:00:00","3906014","40.761962","-73.949697","5","23801","Lenox Hill-Roosevelt Island"
"BROOKLYN","3023680","179","15TH STREET","321972148","01","A2","Y","01041","00060","306","11215","1","YES",,,"MH","ISSUED","RENEWAL","EW","04","MH",,"NOT APPLICABLE","05/10/2022","05/10/2022","04/29/2023","07/11/2019","JEFFREY","MCMAHON","JEFFREY MCMAHON DESIGN &","2158844350","GC","0614745",,,,,,,,,"INDIVIDUAL","N","N/A","ACKROYD","LINDSAY",,,,,,"9175415576","05/11/2022 00:00:00","3906015","40.666156","-73.990509","39","141","Park Slope-Gowanus"
"BRONX","2129192","859","CONCOURSE VILLAGE WEST","240273798","01","A3","Y","02459","00053","204","10451","2",,,,"EQ","ISSUED","RENEWAL","EQ","03","OT",,,"05/10/2022","05/10/2022","05/10/2023","06/18/2020","PO SHENG","HSU","TRI BOROUGH SCAFFOLDING","7188861300","GC","0606141",,,,,,,,,"CORPORATION","N","TRIBOROUGH SCAFFOLDING","JARED","BOHRER",,,,,,"7188861300","05/11/2022 00:00:00","3906016","40.825934","-73.921523","16","5902","East Concourse-Concourse Village"
"MANHATTAN","1034220","49","WEST 44TH STREET","123211522","02","A2","N","01260","00012","105","10036","2",,,,"MH","ISSUED","RENEWAL","EW","03","MH",,,"05/10/2022","05/10/2022","05/01/2023","09/27/2021","JOHN","VENETIS","VEMAGROUP LLC","2122475658","GC","0612969",,,,,,,,,"PARTNERSHIP","N","IRQOUIS HOTEL LLC","SHIMMINE","HORN",,,,,,"2124534274","05/11/2022 00:00:00","3906017","40.755458","-73.981523","4","96","Midtown-Midtown South"
"BROOKLYN","3049709","1005","BEDFORD AVENUE","321903302","01","A1","N","01783","00001","303","11205","2",,,,,"ISSUED","RENEWAL","AL","07",,,"NOT APPLICABLE","05/10/2022","05/10/2022","05/06/2023","05/08/2020","SHIA","KOHN","PARK MANAGEMENT USA CORP","7182103181","GC","0621935",,,,,,,,,"CORPORATION","Y","TALMUD TORAH D'NITRA","DAVID","MOSKOWITZ",,,,,,"7185966765","05/11/2022 00:00:00","3906018","40.689670","-73.955154","36","241","Bedford"
"BROOKLYN","3037109","1458","ST. JOHN PLACE","321598115","01","A1","N","01385","00019","308","11213","2","YES",,,,"ISSUED","RENEWAL","AL","03",,,"NOT APPLICABLE","05/10/2022","05/10/2022","05/10/2023","03/23/2021","SHIA","KOHN","PARK MANAGEMENT USA CORP","7182103181","GC","0621935",,,,,,,,,"INDIVIDUAL","N","ASY ST. JOHN LLC","SOLOMON","FREUND",,,,,,"9176766020","05/11/2022 00:00:00","3906019","40.670532","-73.930159","41","349","Crown Heights North"
"QUEENS","4298711","635","OAK DRIVE","421676573","01","NB","N","15588","00016","414","11691","1","YES",,,"PL","ISSUED","RENEWAL","PL","02",,,"ON-SITE","05/10/2022","05/10/2022","05/10/2023","09/01/2020","DAVID","LEO","DNA PLUMBING CONTR. INC","7182042121","MP","0001343",,,,,,,,,"INDIVIDUAL","N","NA","ADAM","OSTREICHER",,,,,,"7183272795","05/11/2022 00:00:00","3906020","40.601160","-73.741350","31","101002","Far Rockaway-Bayswater"
"BROOKLYN","3023680","179","15TH STREET","321972157","01","A2","Y","01041","00060","306","11215","1","YES",,,"OT","ISSUED","RENEWAL","EW","04","OT",,"NOT APPLICABLE","05/10/2022","05/10/2022","04/29/2023","07/11/2019","JEFFREY","MCMAHON","JEFFREY MCMAHON DESIGN &","2158844350","GC","0614745",,,,,,,,,"INDIVIDUAL","N","N/A","ACKROYD","LINDSAY",,,,,,"9175415576","05/11/2022 00:00:00","3906021","40.666156","-73.990509","39","141","Park Slope-Gowanus"
"BROOKLYN","3023680","179","15TH STREET","340745670","01","A2","Y","01041","00060","306","11215","1","YES",,,"OT","ISSUED","RENEWAL","EW","03","OT",,"NOT APPLICABLE","05/10/2022","05/10/2022","04/29/2023","08/10/2020","JEFFREY","MCMAHON","JEFFREY MCMAHON DESIGN &","2158844350","GC","0614745",,,,,,,,,"INDIVIDUAL","N","179 15TH STREET BROOKLYN NY","ACKROYD","LINDSAY",,,,,,"9175415576","05/11/2022 00:00:00","3906022","40.666156","-73.990509","39","141","Park Slope-Gowanus"
"BROOKLYN","3008118","188","NELSON STREET","320400525","01","A1","N","00474","00016","306","11231","1","YES",,,"PL","ISSUED","RENEWAL","PL","04",,,"NOT APPLICABLE","05/10/2022","05/10/2022","05/10/2023","01/12/2012","DUANE","POLADIAN","TOP DOG PLBG & HTG CORP","7188880213","MP","0002025",,,,,,,,,"INDIVIDUAL","N","N/A","CATHERINE","ZAWIERKA",,,,,,"9178921117","05/11/2022 00:00:00","3906023","40.676304","-73.998107","39","77","Carroll Gardens-Columbia Street-Red Hook"
"MANHATTAN","1054505","110","EAST 129 STREET","123533532","01","A2","N","01777","00005","111","10035","2","YES",,,"MH","ISSUED","RENEWAL","EW","05","MH",,"NOT APPLICABLE","05/10/2022","05/10/2022","05/01/2023","12/27/2019","DOMENIC","MANGINELLI","FRAMAN MECHANICAL INC","7326610001","GC","0036944",,,,,,,,,"NYCHA/HHC","N","NYCHA","SCOTT","GROOM",,,,,,"2123066936","05/11/2022 00:00:00","3906024","40.807387","-73.936695","9","242","East Harlem North"
"MANHATTAN","1054505","110","EAST 129 STREET","123533532","02","A2","N","01777","00005","111","10035","2",,,,"OT","ISSUED","RENEWAL","EW","05","OT",,,"05/10/2022","05/10/2022","05/01/2023","12/27/2019","DOMENIC","MANGINELLI","FRAMAN MECHANICAL INC","7326610001","GC","0036944",,,,,,,,,"NYCHA/HHC","N","NYCHA","SCOTT","GROOM",,,,,,"2123066936","05/11/2022 00:00:00","3906025","40.807387","-73.936695","9","242","East Harlem North"
"BROOKLYN","3053556","619","THROOP AVENUE","321598204","01","A1","N","01856","00001","303","11216","2","YES",,,,"ISSUED","RENEWAL","AL","04",,,"NOT APPLICABLE","05/10/2022","05/10/2022","12/27/2022","10/07/2021","PHILLIP","SCHANZER","TP INTERIORS LLC","7187213543","GC","0616484",,,,,,,"LEONID ZHELEZNYAK","DIFIORE AND SONS CUSTOM V","PARTNERSHIP","N","THROOP OWNER LLC","TRAVIS","STABLER",,,,,,"6463558717","05/11/2022 00:00:00","3906026","40.680749","-73.940485","36","273","Stuyvesant Heights"
"BROOKLYN","3034668","676","MONTGOMERY STREET","340351924","01","A2","Y","01312","00012","309","11213","1","YES",,,"OT","ISSUED","RENEWAL","EW","06","OT",,"NOT APPLICABLE","05/10/2022","05/10/2022","04/01/2023","03/02/2016","SHOLOM","ROGATSKY","ROGO BUILDERS INC","7183959015","GC","0607850",,,,,,,,,"INDIVIDUAL","N","MA","ZUSHIE","RIMLER",,,,,,"9175663785","05/11/2022 00:00:00","3906027","40.664909","-73.942057","35","331","Crown Heights South"
"MANHATTAN","1030866","250","WEST   77 STREET","104337004","01","A2",,"01168","00056","107","10024","2",,,,"EQ","ISSUED","RENEWAL","EQ","17","FN",,"NONE","05/10/2022","05/10/2022","05/10/2023","12/12/2007","JOHN","VENETIS","VEMAGROUP LLC","2122475658","GC","0612969",,,,,,,,,"PARTNERSHIP","N","Lophijo Realty LLC","John","Huber",,,,,,"2124534274","05/11/2022 00:00:00","3906028","40.782656","-73.981270","6","163","Upper West Side"
"MANHATTAN","1050587","441","EAST 87 STREET","123559728","01","A1","N","01567","00020","108","10128","1","YES",,,,"ISSUED","RENEWAL","AL","04",,,"NOT APPLICABLE","05/10/2022","05/10/2022","02/17/2023","07/02/2019","GEORGE","MAN","MORGAN CONSTRUCTION NY IN","2126250820","GC","0028678",,,,,,,,,"CORPORATION","N","441E87 LLC","YAT CHUN","SUNG",,,,,,"7189758373","05/11/2022 00:00:00","3906029","40.777148","-73.947895","5","14402","Yorkville"
"MANHATTAN","1041221","49","EAST 67TH STREET","140920706","01","A1","N","01382","00032","108","10065","1","YES","LH-1A",,,"ISSUED","RENEWAL","AL","03",,,"NOT APPLICABLE","08/08/2022","08/08/2022","08/01/2023","03/25/2021","ANTONIO","DELALUZ.GONZALEZ","DLG INTERIORS RENOVATIONS","7324250319","GC","0618295",,,,,,,,,"CORPORATION","N","49 EAST 67TH, LLC","KEVIN","GLASER",,,,,,"9176966912","08/09/2022 00:00:00","3918462","40.768372","-73.967205","4","122","Upper East Side-Carnegie Hill"
"QUEENS","4617267","30-67","31ST STREET","421375274","01","NB","N","00615","00009","401","11102","2","YES",,,"PL","ISSUED","RENEWAL","PL","02",,,"USE UNDER 300 CU.YD","08/08/2022","08/08/2022","08/08/2023","07/22/2021","ANTONIOS","ELENIS","MASTER PLBG AND HTG INC","7185457616","MP","0001972",,,,,,,,,"CORPORATION","Y","HELLENIC ORTHODOX COMM OF ASTORI","NICK NECTARIOS","PAPAZAFIROPOULOS",,,,,,"7187281718","08/09/2022 00:00:00","3918463","40.765507","-73.922504","22","63","Astoria"
"MANHATTAN","1003985","57","ALLEN STREET","121184137","01","A1","N","00307","00026","103","10002","2","YES",,,"EQ","ISSUED","RENEWAL","EQ","07","FN",,"ON-SITE","05/10/2022","05/10/2022","05/10/2023","06/30/2015","GEORGE","MAN","MORGAN CONSTRUCTION NY IN","2126250820","GC","0028678",,,,,,,,,"CORPORATION","N","57 ALLEN STREET REALTY INC.","GEORGE","MAN",,,,,,"9174162002","05/11/2022 00:00:00","3906032","40.717050","-73.991487","1","16","Chinatown"
"MANHATTAN","1030866","250","WEST   77 STREET","104337004","01","A2",,"01168","00056","107","10024","2",,,,"OT","ISSUED","RENEWAL","EW","18","OT",,"NONE","05/10/2022","05/10/2022","05/01/2023","12/12/2007","JOHN","VENETIS","VEMAGROUP LLC","2122475658","GC","0612969",,,,,,,,,"PARTNERSHIP","N","Lophijo Realty LLC","John","Huber",,,,,,"2124534274","05/11/2022 00:00:00","3906033","40.782656","-73.981270","6","163","Upper West Side"
"MANHATTAN","1003985","57","ALLEN STREET","121184137","01","A1","N","00307","00026","103","10002","2","YES",,,,"ISSUED","RENEWAL","AL","08",,,"ON-SITE","05/10/2022","05/10/2022","02/17/2023","07/02/2015","GEORGE","MAN","MORGAN CONSTRUCTION NY IN","2126250820","GC","0028678",,,,,,,"BLANDA CHUNG","MORGAN CONSTRUCTION NY IN","CORPORATION","N","57 ALLEN STREET REALTY INC.","GEORGE","MAN",,,,,,"9174162002","05/11/2022 00:00:00","3906034","40.717050","-73.991487","1","16","Chinatown"
"BRONX","2091925","3750","HUDSON MANOR TERRACE","220658759","01","A2","Y","05919","00448","208","10463","2","YES",,,"OT","ISSUED","RENEWAL","EW","03","OT",,"NOT APPLICABLE","05/10/2022","05/10/2022","01/01/2023","09/10/2019","ROMAN","JEMIELITY","INTER RENOVATION INC","7183265606","GC","0612190",,,,,,,,,"CONDO/CO-OP","N","HUDSON MANOR TERRACE CORP","DANE","BARNES",,,,,,"9173014056","05/11/2022 00:00:00","3906035","40.888713","-73.915597","11","309","North Riverdale-Fieldston-Riverdale"
"BROOKLYN","3059029","300","CARLTON AVENUE","340788963","01","A2","N","02102","00047","302","11205","1","YES",,,"OT","ISSUED","RENEWAL","EW","02","OT",,"NOT APPLICABLE","05/10/2022","05/10/2022","12/20/2022","02/03/2021","GINA","MASTRO","PLRS RESTORATION LLC","7185596060","GC","0621995",,,,,,,,,"INDIVIDUAL","N","NA","LISA","GREENFIELD",,,,,,"9176030132","05/11/2022 00:00:00","3906036","40.688624","-73.971957","35","181","Fort Greene"
"MANHATTAN","1030866","250","WEST 77TH STREET","121106962","01","A2","N","01168","00056","107","10024","2","YES",,,"OT","ISSUED","RENEWAL","EW","15","OT",,"NOT APPLICABLE","05/10/2022","05/10/2022","05/01/2023","08/15/2012","JOHN","VENETIS","VEMAGROUP LLC","2122475658","GC","0612969",,,,,,,,,"PARTNERSHIP","N","BELLECLAIRE HOTEL","LISA","COSTA",,,,,,"2124534274","05/11/2022 00:00:00","3906037","40.782656","-73.981270","6","163","Upper West Side"
"MANHATTAN","1021907","326","EAST 35 STREET","121894584","01","A2","Y","00940","00046","106","10016","2","YES",,,"BL","ISSUED","RENEWAL","EW","05","BL",,"NOT APPLICABLE","05/10/2022","05/10/2022","06/17/2022","01/23/2014","ANDREW","DEMARINIS","ALL BORO TANK TESTING LLC","7189753963","OB","0005351",,,,,,,,,"CORPORATION","N","326 EAST 35TH LLC","STEVEN","CROMAN",,,,,,"2122289300","05/11/2022 00:00:00","3906038","40.744967","-73.974276","2","78","Murray Hill-Kips Bay"
"MANHATTAN","1080501","1365","5TH AVENUE","123475462","01","A2","Y","01618","00001","111","10029","2","YES",,,"OT","ISSUED","RENEWAL","EW","06","OT",,"NOT APPLICABLE","05/10/2022","05/10/2022","05/01/2023","08/27/2019","DOMENIC","MANGINELLI","FRAMAN MECHANICAL INC","7326610001","GC","0036944",,,,,,,,,"NYCHA/HHC","N","NYCHA","SCOTT","GROOM",,,,,,"2123066936","05/11/2022 00:00:00","3906039","40.798815","-73.947799","9","184","East Harlem North"
"MANHATTAN","1080501","1365","5TH AVENUE","123475462","01","A2","Y","01618","00001","111","10029","2","YES",,,"MH","ISSUED","RENEWAL","EW","06","MH",,"NOT APPLICABLE","05/10/2022","05/10/2022","05/01/2023","08/27/2019","DOMENIC","MANGINELLI","FRAMAN MECHANICAL INC","7326610001","GC","0036944",,,,,,,,,"NYCHA/HHC","N","NYCHA","SCOTT","GROOM",,,,,,"2123066936","05/11/2022 00:00:00","3906040","40.798815","-73.947799","9","184","East Harlem North"
"MANHATTAN","1030866","250","WEST 77TH STREET","122549368","01","A2","Y","01168","00056","107","10024","2","YES",,,"OT","ISSUED","RENEWAL","EW","09","OT",,"NOT APPLICABLE","05/10/2022","05/10/2022","05/01/2023","05/17/2016","JOHN","VENETIS","VEMAGROUP LLC","2122475658","GC","0612969",,,,,,,,,"PARTNERSHIP","N","BELLECLAIRE HOTEL","ANNA","FUENTAS",,,,,,"2124534274","05/11/2022 00:00:00","3906041","40.782656","-73.981270","6","163","Upper West Side"
"MANHATTAN","1044819","321","EAST 69 STREET","140981800","01","A2","N","01444","00013","108","10021","2","YES",,,"OT","ISSUED","RENEWAL","EW","03","OT",,"NOT APPLICABLE","05/10/2022","05/10/2022","12/18/2022","02/16/2021","SAMTUR","STUART","GOTHAM NEW YORK LLC","2126538747","GC","0616742",,,,,,,,,"CORPORATION","N","321 EAST 69 STREET LLC","PIET","QUACKENBUSH",,,,,,"2123538223","05/11/2022 00:00:00","3906042","40.766377","-73.958589","5","126","Lenox Hill-Roosevelt Island"
"STATEN ISLAND","5021892","1055","RICHMOND ROAD","540187251","01","NB","N","00848","00009","502","10304","1","YES",,,,"ISSUED","RENEWAL","NB","02",,,"USE UNDER 300 CU.YD","05/10/2022","05/10/2022","09/08/2022","06/09/2021","ALDO","PULETTI,JR","OAK DEVELOPERS,LLC","7185544587","GC","0610567",,,,,,,,,"CORPORATION","N","OAK DEVELOPERS, LLC","ALDO","PULETTI",,,,,,"7185544587","05/11/2022 00:00:00","3906043","40.600903","-74.092700","50","177","Todt Hill-Emerson Hill-Heartland Village-Lighthouse Hill"
"MANHATTAN","1030866","250","WEST 77TH STREET","122549368","02","A2","Y","01168","00056","107","10024","2",,,,"OT","ISSUED","RENEWAL","EW","09","OT",,,"05/10/2022","05/10/2022","05/01/2023","05/17/2016","JOHN","VENETIS","VEMAGROUP LLC","2122475658","GC","0612969",,,,,,,,,"PARTNERSHIP","N","BELLECLAIRE HOTEL","ANNA","FUENTAS",,,,,,"2124534274","05/11/2022 00:00:00","3906044","40.782656","-73.981270","6","163","Upper West Side"
"STATEN ISLAND","5174868","1059","RICHMOND ROAD","540187260","01","NB","N","00848","00011","502","10304","1","YES",,,,"ISSUED","RENEWAL","NB","02",,,"USE UNDER 300 CU.YD","05/10/2022","05/10/2022","09/08/2022","06/11/2021","ALDO","PULETTI,JR","OAK DEVELOPERS,LLC","7185544587","GC","0610567",,,,,,,,,"CORPORATION","N","OAK DEVELOPERS, LLC","ALDO","PULETTI",,,,,,"7185544587","05/11/2022 00:00:00","3906045","40.600845","-74.092653","50","177","Todt Hill-Emerson Hill-Heartland Village-Lighthouse Hill"
"BROOKLYN","3425881","1171","86TH STREET","320906374","01","NB","N","06337","00048","310","11228","2","YES",,,"PL","ISSUED","RENEWAL","PL","05",,,"ON-SITE","05/10/2022","05/10/2022","05/10/2023","10/03/2017","STUART","LIBEN","NYC PLUMBING & HEATING IN","3473912747","MP","0001217",,,,,,,,,"PARTNERSHIP","N","OCEAN CONSTRUCTION","S.E","PINI",,,,,,"9177416215","05/11/2022 00:00:00","3906046","40.615862","-74.016886","43","166","Dyker Heights"
"MANHATTAN","1030866","250","WEST 77TH STREET","120990838","01","A2","N","01168","00056","107","10024","2","YES",,,"OT","ISSUED","RENEWAL","EW","13","OT",,"NOT APPLICABLE","05/10/2022","05/10/2022","05/01/2023","02/29/2012","JOHN","VENETIS","VEMAGROUP LLC","2122475658","GC","0612969",,,,,,,,,"PARTNERSHIP","N","BELLECLAIRE HOTEL","LISA","COSTA",,,,,,"2124534274","05/11/2022 00:00:00","3906048","40.782656","-73.981270","6","163","Upper West Side"
"STATEN ISLAND","5174869","1063","RICHMOND ROAD","540187279","01","NB","N","00848","00013","502","10304","1","YES",,,,"ISSUED","RENEWAL","NB","02",,,"USE UNDER 300 CU.YD","05/10/2022","05/10/2022","09/08/2022","06/09/2021","ALDO","PULETTI,JR","OAK DEVELOPERS,LLC","7185544587","GC","0610567",,,,,,,,,"CORPORATION","N","OAK DEVELOPERS, LLC","ALDO","PULETTI",,,,,,"7185544587","05/11/2022 00:00:00","3906049","40.600788","-74.092609","50","177","Todt Hill-Emerson Hill-Heartland Village-Lighthouse Hill"
"MANHATTAN","1030866","250","WEST   77 STREET","102968488","01","A2",,"01168","00056","107","10024","2",,,,"OT","ISSUED","RENEWAL","EW","24","OT",,"NONE","05/10/2022","05/10/2022","05/01/2023","04/25/2002","JOHN","VENETIS","VEMAGROUP LLC","2122475658","GC","0612969",,,,,,,,,"PARTNERSHIP","N","BELLECLAIRE HOTEL LLC","SIDNEY","ZIMMER",,,,,,"2128403080","05/11/2022 00:00:00","3906050","40.782656","-73.981270","6","163","Upper West Side"
"STATEN ISLAND","5174870","1067","RICHMOND ROAD","540187288","01","NB","N","00848","00015","502","10304","1","YES",,,,"ISSUED","RENEWAL","NB","02",,,"USE UNDER 300 CU.YD","05/10/2022","05/10/2022","09/08/2022","06/09/2021","ALDO","PULETTI,JR","OAK DEVELOPERS,LLC","7185544587","GC","0610567",,,,,,,,,"CORPORATION","N","OAK DEVELOPERS, LLC","ALDO","PULETTI",,,,,,"7185544587","05/11/2022 00:00:00","3906051","40.600730","-74.092566","50","177","Todt Hill-Emerson Hill-Heartland Village-Lighthouse Hill"
"STATEN ISLAND","5174871","1071","RICHMOND ROAD","540187297","01","NB","N","00848","00017","502","10304","1","YES",,,,"ISSUED","RENEWAL","NB","02",,,"USE UNDER 300 CU.YD","05/10/2022","05/10/2022","09/08/2022","06/09/2021","ALDO","PULETTI,JR","OAK DEVELOPERS,LLC","7185544587","GC","0610567",,,,,,,,,"CORPORATION","N","OAK DEVELOPERS, LLC","ALDO","PULETTI",,,,,,"7185544587","05/11/2022 00:00:00","3906052","40.600672","-74.092523","50","177","Todt Hill-Emerson Hill-Heartland Village-Lighthouse Hill"
"MANHATTAN","1030866","250","WEST 77TH STREET","122632963","01","A2","Y","01168","00056","107","10024","2","YES",,,"OT","ISSUED","RENEWAL","EW","09","OT",,"NOT APPLICABLE","05/10/2022","05/10/2022","05/01/2023","03/17/2016","JOHN","VENETIS","VEMAGROUP LLC","2122475658","GC","0612969",,,,,,,,,"PARTNERSHIP","N","BELLECLAIRE HOTEL","ANNA","FUENTAS",,,,,,"2124534274","05/11/2022 00:00:00","3906053","40.782656","-73.981270","6","163","Upper West Side"
"BROOKLYN","3029511","565","ST JOHNS PLACE","321849657","02","A2","N","01175","00087","308","11238","2",,,,"PL","ISSUED","RENEWAL","PL","03",,,,"05/10/2022","05/10/2022","05/10/2023","05/02/2019","BASIL","THOMPSON","KISHAN PLBG & HEATING INC","7185584445","MP","0002233",,,,,,,,,"CORPORATION","N","ZEV JOHNS LLC","ZEV JOHNS","LLC",,,,,,"7185342824","05/11/2022 00:00:00","3906054","40.672871","-73.959476","35","217","Crown Heights North"
"STATEN ISLAND","5174872","1075","RICHMOND ROAD","540187304","01","NB","N","00848","00019","502","10304","1","YES",,,,"ISSUED","RENEWAL","NB","02",,,"USE UNDER 300 CU.YD","05/10/2022","05/10/2022","09/08/2022","06/09/2021","ALDO","PULETTI,JR","OAK DEVELOPERS,LLC","7185544587","GC","0610567",,,,,,,,,"CORPORATION","N","OAK DEVELOPERS, LLC","ALDO","PULETTI",,,,,,"7185544587","05/11/2022 00:00:00","3906055","40.600615","-74.092479","50","177","Todt Hill-Emerson Hill-Heartland Village-Lighthouse Hill"
"MANHATTAN","1087235","79","GANSEVOORT STREET","140895306","01","A2","N","08224","00111","102","10014","2",,,,"OT","ISSUED","INITIAL","EW","01","OT",,"NOT APPLICABLE","06/17/2020","06/17/2020","06/01/2021","06/17/2020","AMANDA","REKEMEYER","RELATED CONSTRUCTION LLC","2128011000","GC","0611958",,,,,,,,,"NYC AGENCY","N","NYC DEPT. OF PARKS & RECREATION","THERESE","BRADDICK","117-02","ROOSEVELT AVE","FLUSHING","NY","11368","7187606734","06/18/2020 00:00:00","3765646","40.739389","-74.007809","3","79","West Village"
"MANHATTAN","1030866","250","WEST 77 STREET","123582355","01","A2","N","01168","00056","107","10024","2","YES",,,"OT","ISSUED","RENEWAL","EW","06","OT",,"NOT APPLICABLE","05/10/2022","05/10/2022","05/01/2023","08/08/2018","JOHN","VENETIS","VEMAGROUP LLC","2122475658","GC","0612969",,,,,,,,,"CORPORATION","N","BELLECLAIRE HOTEL LLC","SHIMMIE","HORN",,,,,,"2124534000","05/11/2022 00:00:00","3906057","40.782656","-73.981270","6","163","Upper West Side"
"QUEENS","4617267","30-67","31ST STREET","421426371","01","A2","N","00615","00009","401","11102","2","YES",,,"SP","ISSUED","RENEWAL","EW","02","SP",,"NOT APPLICABLE","08/08/2022","08/08/2022","08/08/2023","07/23/2021","ANASTASIOS","ELENIS","MASTER PLBG AND HTG INC","7185457616","FS","0000434",,,,,,,,,"CORPORATION","Y","HELLENIC ORTHODOX COMM OF ASTORI","NICK NECTARIOS","PAPAZAFIROPOULOS",,,,,,"7187281718","08/09/2022 00:00:00","3918464","40.765507","-73.922504","22","63","Astoria"
"STATEN ISLAND","5174873","1079","RICHMOND ROAD","540187313","01","NB","N","00848","00021","502","10304","1","YES",,,,"ISSUED","RENEWAL","NB","02",,,"USE UNDER 300 CU.YD","05/10/2022","05/10/2022","09/08/2022","06/09/2021","ALDO","PULETTI,JR","OAK DEVELOPERS,LLC","7185544587","GC","0610567",,,,,,,,,"CORPORATION","N","OAK DEVELOPERS, LLC","ALDO","PULETTI",,,,,,"7185544587","05/11/2022 00:00:00","3906059","40.600557","-74.092440","50","177","Todt Hill-Emerson Hill-Heartland Village-Lighthouse Hill"
"MANHATTAN","1030866","250","WEST 77TH STREET","122842692","01","A2","N","01168","00056","107","10024","2","YES",,,"OT","ISSUED","RENEWAL","EW","06","OT",,"NOT APPLICABLE","05/10/2022","05/10/2022","05/01/2023","03/23/2018","JOHN","VENETIS","VEMAGROUP LLC","2122475658","GC","0612969",,,,,,,,,"PARTNERSHIP","N","BELLECLAIRE HOTEL","ANNA","FUENTAS",,,,,,"2124534274","05/11/2022 00:00:00","3906060","40.782656","-73.981270","6","163","Upper West Side"
"BROOKLYN","3325516","63","STOCKHOLM STREET","321593557","01","NB","N","03243","00065","304","11221","2","YES",,,,"ISSUED","RENEWAL","NB","02",,,"ON-SITE","05/10/2022","05/10/2022","08/29/2022","03/08/2022","ANTONIO","AMBROSINO","AMBROSINO CONST CORP","7183666528","GC","0000291",,,,,,,"SANWAL CHUGHTAI","DUNN CO. SAFETY LLC","NYC AGENCY","N","HOUSING PRESERVATION AND DEV.","RONA","REODICA",,,,,,"2128638576","05/11/2022 00:00:00","3906061","40.696583","-73.925660","34","421","Bushwick South"
"STATEN ISLAND","5174874","1083","RICHMOND ROAD","540187322","01","NB","N","00848","00023","502","10304","1","YES",,,,"ISSUED","RENEWAL","NB","02",,,"USE UNDER 300 CU.YD","05/10/2022","05/10/2022","09/08/2022","06/09/2021","ALDO","PULETTI,JR","OAK DEVELOPERS,LLC","7185544587","GC","0610567",,,,,,,,,"CORPORATION","N","OAK DEVELOPERS, LLC","ALDO","PULETTI",,,,,,"7185544587","05/11/2022 00:00:00","3906062","40.600497","-74.092396","50","177","Todt Hill-Emerson Hill-Heartland Village-Lighthouse Hill"
"BROOKLYN","3079126","332","ELDERT STREET","321593566","01","NB","N","03419","00024","304","11237","2","YES",,,,"ISSUED","RENEWAL","NB","02",,,"ON-SITE","05/10/2022","05/10/2022","08/29/2022","03/08/2022","ANTONIO","AMBROSINO","AMBROSINO CONST CORP","7183666528","GC","0000291",,,,,,,"SANWAL CHUGHTAI","DUNN CO. SAFETY LLC","NYC AGENCY","N","HOUSING PRESERVATION AND DEV.","RONA","REODICA",,,,,,"2128638576","05/11/2022 00:00:00","3906063","40.693401","-73.906494","37","437","Bushwick North"
"BROOKLYN","3175027","1523","OCEAN PARKWAY","340736948","01","A1","N","06613","00087","312","11230","1","YES","OP",,,"ISSUED","RENEWAL","AL","03",,,"USE UNDER 300 CU.YD","05/10/2022","05/10/2022","08/29/2022","03/24/2021","ANTONIO","AMBROSINO","AMBROSINO CONST CORP","7183666528","GC","0000291",,,,,,,"DONALD KENNA","REK SAFETY","INDIVIDUAL","N","OWNER","JACK","SCABA",,,,,,"2127042006","05/11/2022 00:00:00","3906064","40.611177","-73.968007","44","442","Ocean Parkway South"
"STATEN ISLAND","5174874","1083","RICHMOND ROAD","540187322","01","NB","N","00848","00023","502","10304","1","YES",,,,"ISSUED","RENEWAL","NB","03",,,"USE UNDER 300 CU.YD","05/10/2022","05/10/2022","09/08/2022","06/09/2021","ALDO","PULETTI,JR","OAK DEVELOPERS,LLC","7185544587","GC","0610567",,,,,,,,,"CORPORATION","N","OAK DEVELOPERS, LLC","ALDO","PULETTI",,,,,,"7185544587","05/11/2022 00:00:00","3906065","40.600497","-74.092396","50","177","Todt Hill-Emerson Hill-Heartland Village-Lighthouse Hill"
